FID,Shape *,id,geometry_t,geometry_c,geometry_1,geometry_n,latitude,longitude,ri_service,timestamp,cce_availa,category,global_id,name,functional,type,ownership,ward_code,source,ward_name,lga_code,lga_name,state_code,state_name,alternate_,contact_ph,contact_na,cce_quanti,cce_lastup,accessibil
0,Point,sv_fc_healthcare_facilities.fid-65d4c550_169d91ba9ce_-5dd0,Point,6.688533,10.707223,geometry_type,10.707223,6.688533,Unknown,2018-09-25T14:24:37Z,Unknown,Primary Health Center,965e847e-a149-4edf-90d3-30c9461959fa,Pole Wire's Health Center,Unknown,Primary,Public,KD0101,eHA_Polio,Gayam,19001,Birnin Gwari,KD,Kaduna, , , , , , 
1,Point,sv_fc_healthcare_facilities.fid-65d4c550_169d91ba9ce_-5dc5,Point,6.745297,10.725047,geometry_type,10.725047,6.745297,Unknown,2018-09-25T14:34:39Z,Unknown,Primary Health Center,1938268f-426c-4221-a264-ee7bcfd6b2e0,Health Center Gayam,Functional,Primary,Others,KD0101,NPHCDA,Gayam,19001,Birnin Gwari,KD,Kaduna, , , , , , 
2,Point,sv_fc_healthcare_facilities.fid-65d4c550_169d91ba9ce_-5dc1,Point,7.041757,10.648297,geometry_type,10.648297,7.041757,Unknown,2018-09-25T14:24:39Z,Unknown,Primary Health Clinic,ad534918-f452-4f81-b313-61ee4cbcbf36,Health Clinic Labi,Unknown,Primary,Others,KD0101,NPHCDA,Gayam,19001,Birnin Gwari,KD,Kaduna, , , , , , 
3,Point,sv_fc_healthcare_facilities.fid-65d4c550_169d91ba9ce_-5dba,Point,6.642158,10.769058,geometry_type,10.769058,6.642158,Unknown,2018-09-25T14:24:37Z,Unknown,Primary Health Clinic,4bbad2db-1bc5-4e28-9842-4abb8b2c5119,Girezin Primary Health Carep,Functional,Primary,Public,KD0101,eHA_Polio,Gayam,19001,Birnin Gwari,KD,Kaduna, , , , , , 
4,Point,sv_fc_healthcare_facilities.fid-65d4c550_169d91ba9ce_-5dae,Point,6.180544,10.777357,geometry_type,10.777357,6.180544,Unknown,2018-09-25T14:24:37Z,Unknown,Primary Health Center,73c0922c-b6aa-427f-aba9-8614b26ecc6b,Kankangi Model Primary Health Center,Unknown,Primary,Public,KD0102,eHA_Polio,Kakangi,19001,Birnin Gwari,KD,Kaduna, , , , , , 
5,Point,sv_fc_healthcare_facilities.fid-65d4c550_169d91ba9ce_-5da7,Point,6.35428,10.64994,geometry_type,10.64994,6.35428,Yes,2018-09-25T14:24:32Z,Unknown,Primary Health Center,9700a9a6-aac3-469b-966b-afa1c9b19492,Sabon Layi Primary Health Center,Functional,Primary,Public,KD0102,eHA_Polio,Kakangi,19001,Birnin Gwari,KD,Kaduna, , , , , , 
6,Point,sv_fc_healthcare_facilities.fid-65d4c550_169d91ba9ce_-5d9c,Point,6.35103,10.64669,geometry_type,10.64669,6.35103,Yes,2018-09-25T14:24:32Z,Unknown,Primary Health Clinic,95c98549-003c-46c8-8106-20c896b4fe46,Ikon Allah Nursing And Maternity,Unknown,Primary,Public,KD0102,eHA_Polio,Kakangi,19001,Birnin Gwari,KD,Kaduna, , , , , , 
7,Point,sv_fc_healthcare_facilities.fid-65d4c550_169d91ba9ce_-5d97,Point,6.123258,10.743787,geometry_type,10.743787,6.123258,Unknown,2018-09-25T14:24:35Z,Unknown,Primary Health Clinic,e9b517ff-e63c-4307-9852-5f0904e8aa60,Kakangi Primary Health Care,Unknown,Primary,Public,KD0102,eHA_Polio,Kakangi,19001,Birnin Gwari,KD,Kaduna, , , , , , 
8,Point,sv_fc_healthcare_facilities.fid-65d4c550_169d91ba9ce_-5d8f,Point,6.569636,10.638247,geometry_type,10.638247,6.569636,Unknown,2018-09-25T14:24:37Z,Unknown,Primary Health Center,bc4ac18d-e185-4478-877e-298eee1858e7,Gayam Primary Health Center,Unknown,Primary,Public,KD0103,eHA_Polio,Magajin Gari 1,19001,Birnin Gwari,KD,Kaduna, , , , , , 
9,Point,sv_fc_healthcare_facilities.fid-65d4c550_169d91ba9ce_-5d86,Point,6.546779,10.663299,geometry_type,10.663299,6.546779,Unknown,2018-09-25T14:24:38Z,Unknown,Primary Health Clinic,95aa2916-c1b8-43fb-b3bc-eb3f1f542064,Unguwan Shittu Health Clinic,Unknown,Primary,Public,KD0103,eHA_Polio,Magajin Gari 1,19001,Birnin Gwari,KD,Kaduna, , , , , , 
10,Point,sv_fc_healthcare_facilities.fid-65d4c550_169d91ba9ce_-5d81,Point,6.542682,10.660289,geometry_type,10.660289,6.542682,Unknown,2018-09-25T14:34:41Z,Unknown,Primary Health Center,0c9c962d-a1e4-4746-b449-dc453d4bc0bb,Health Center Kungi,Functional,Primary,Others,KD0103,NPHCDA,Magajin Gari 1,19001,Birnin Gwari,KD,Kaduna, , , , , , 
11,Point,sv_fc_healthcare_facilities.fid-65d4c550_169d91ba9ce_-5d7e,Point,6.545658,10.666228,geometry_type,10.666228,6.545658,Unknown,2018-09-25T14:24:35Z,Unknown,Private Clinic,02203a50-e42a-4995-86e2-6b273b305e17,Badamuwa Nursing Home,Unknown,Tertiary,Private,KD0103,eHA_Polio,Magajin Gari 1,19001,Birnin Gwari,KD,Kaduna, , , , , , 
12,Point,sv_fc_healthcare_facilities.fid-65d4c550_169d91ba9ce_-5d7a,Point,6.529563,10.646801,geometry_type,10.646801,6.529563,Unknown,2018-09-25T14:34:41Z,Unknown,Primary Health Clinic,2284c6a6-b704-4854-95f4-a1b5f55e1bd0,Health Clinic Bugai,Functional,Primary,Others,KD0104,NPHCDA,Magajin Gari 2,19001,Birnin Gwari,KD,Kaduna, , , , , , 
13,Point,sv_fc_healthcare_facilities.fid-65d4c550_169d91ba9ce_-5d75,Point,6.448883,10.658723,geometry_type,10.658723,6.448883,Unknown,2018-09-25T14:24:38Z,Unknown,Health Post,a41246dd-0e34-44c9-a8d7-eada65b4190e,Awaro Health Post,Unknown,Primary,Public,KD0104,eHA_Polio,Magajin Gari 2,19001,Birnin Gwari,KD,Kaduna, , , , , , 
14,Point,sv_fc_healthcare_facilities.fid-65d4c550_169d91ba9ce_-5d6e,Point,6.426417,10.663637,geometry_type,10.663637,6.426417,Unknown,2018-09-25T14:24:33Z,Unknown,Primary Health Clinic,3909e3ec-2854-4397-bd10-6ecbb38c0f12,Rimi Clinic,Unknown,Primary,Public,KD0104,eHA_Polio,Magajin Gari 2,19001,Birnin Gwari,KD,Kaduna, , , , , , 
15,Point,sv_fc_healthcare_facilities.fid-65d4c550_169d91ba9ce_-5d60,Point,6.538941,10.667977,geometry_type,10.667977,6.538941,Yes,2018-09-25T14:24:36Z,Unknown,Primary Health Clinic,b4503919-ac74-402e-8967-975821047dcb,Talle Memorial Nursing Andmaternity Home,Unknown,Primary,Public,KD0104,eHA_Polio,Magajin Gari 2,19001,Birnin Gwari,KD,Kaduna, , , , , , 
16,Point,sv_fc_healthcare_facilities.fid-65d4c550_169d91ba9ce_-5d5b,Point,6.527362,10.648187,geometry_type,10.648187,6.527362,Unknown,2018-09-25T14:24:34Z,Unknown,Primary Health Center,2cef8932-3597-4876-8604-b7c02cf8978e,Bagoma Primary Health Center,Unknown,Primary,Public,KD0104,eHA_Polio,Magajin Gari 2,19001,Birnin Gwari,KD,Kaduna, , , , , , 
17,Point,sv_fc_healthcare_facilities.fid-65d4c550_169d91ba9ce_-5d53,Point,6.474155,10.72256,geometry_type,10.72256,6.474155,Unknown,2018-09-25T14:24:35Z,Unknown,Primary Health Center,68cabe0d-3d8e-4141-8038-cb8dbac7e2ba,Magajin Gari Ii Health Center,Unknown,Primary,Public,KD0104,eHA_Polio,Magajin Gari 2,19001,Birnin Gwari,KD,Kaduna, , , , , , 
18,Point,sv_fc_healthcare_facilities.fid-65d4c550_169d91ba9ce_-5d51,Point,6.536377,10.665455,geometry_type,10.665455,6.536377,Yes,2018-09-25T14:24:36Z,Unknown,Primary Health Clinic,418d4ba6-ad65-4954-8239-9c77fd7e4d0c,Al'umma Nursing Home And Maternityy,Unknown,Primary,Public,KD0104,eHA_Polio,Magajin Gari 2,19001,Birnin Gwari,KD,Kaduna, , , , , , 
19,Point,sv_fc_healthcare_facilities.fid-65d4c550_169d91ba9ce_-5d49,Point,6.758539,10.929804,geometry_type,10.929804,6.758539,Unknown,2018-09-25T14:09:33Z,Unknown,Primary Health Center,6b62e12e-8e9b-4922-a74e-9f9da45b7bb7,Maganda Health Center,Unknown,Primary,State Primary HealthCare Development Agency,KD0105,eHA_Polio,Magajin Gari 3,19001,Birnin Gwari,KD,Kaduna, , , , , , 
20,Point,sv_fc_healthcare_facilities.fid-65d4c550_169d91ba9ce_-5d45,Point,6.756377,10.928996,geometry_type,10.928996,6.756377,Unknown,2018-09-25T14:24:38Z,Unknown,Primary Health Clinic,3cdd1ea6-52ba-4ee7-ae2b-996a0f02ec9f,Maganda Primary Health Care,Functional,Primary,Public,KD0105,eHA_Polio,Magajin Gari 3,19001,Birnin Gwari,KD,Kaduna, , , , , , 
21,Point,sv_fc_healthcare_facilities.fid-65d4c550_169d91ba9ce_-5d3b,Point,6.569663,11.006944,geometry_type,11.006944,6.569663,Unknown,2018-09-25T14:24:39Z,Unknown,Primary Health Center,fecaa0ca-9b25-4dbf-8b23-c6e7685f40b0,Goron Dutse Primary Health Center,Unknown,Primary,Public,KD0105,eHA_Polio,Magajin Gari 3,19001,Birnin Gwari,KD,Kaduna, , , , , , 
22,Point,sv_fc_healthcare_facilities.fid-65d4c550_169d91ba9ce_-5d38,Point,6.57124,10.906827,geometry_type,10.906827,6.57124,Unknown,2018-09-25T14:24:33Z,Unknown,Primary Health Center,b7ef5fc3-1b5c-494f-9961-6f5d23ef8fdc,Gwaska Primary Health Center,Unknown,Primary,Public,KD0105,eHA_Polio,Magajin Gari 3,19001,Birnin Gwari,KD,Kaduna, , , , , , 
23,Point,sv_fc_healthcare_facilities.fid-65d4c550_169d91ba9ce_-5d33,Point,6.900353,11.05466,geometry_type,11.05466,6.900353,Yes,2018-09-25T14:24:37Z,Unknown,Primary Health Center,3c6594ec-0fc3-48e1-bc3f-57343a42dd3e,Magajin Gari 3 Primary Health Center,Unknown,Primary,Public,KD0105,eHA_Polio,Magajin Gari 3,19001,Birnin Gwari,KD,Kaduna, , , , , , 
24,Point,sv_fc_healthcare_facilities.fid-65d4c550_169d91ba9ce_-5d2f,Point,6.794642,11.086305,geometry_type,11.086305,6.794642,Yes,2018-09-25T14:24:33Z,Unknown,Primary Health Center,0a9753c1-39f7-4212-ab7c-b60c2c83ef6c,Magajin Gari Iii Health Center,Unknown,Primary,Public,KD0105,eHA_Polio,Magajin Gari 3,19001,Birnin Gwari,KD,Kaduna, , , , , , 
25,Point,sv_fc_healthcare_facilities.fid-65d4c550_169d91ba9ce_-5d2d,Point,6.114944,10.537595,geometry_type,10.537595,6.114944,Yes,2018-09-25T14:24:32Z,Unknown,Health Post,407cccd1-6f9d-46f0-b3d5-d742276218a6,Ukuga Health Post,Functional,Primary,Public,KD0106,eHA_Polio,Randagi,19001,Birnin Gwari,KD,Kaduna, , , , , , 
26,Point,sv_fc_healthcare_facilities.fid-65d4c550_169d91ba9ce_-5d28,Point,6.190154,10.661214,geometry_type,10.661214,6.190154,Yes,2018-09-25T14:24:39Z,Unknown,Health Post,1fedaf22-168a-4306-9d03-43c81b9a4ffc,Kimbi Health Post,Functional,Primary,Public,KD0106,eHA_Polio,Randagi,19001,Birnin Gwari,KD,Kaduna, , , , , , 
27,Point,sv_fc_healthcare_facilities.fid-65d4c550_169d91ba9ce_-5d20,Point,6.193902,10.415334,geometry_type,10.415334,6.193902,Yes,2018-09-25T14:24:35Z,Unknown,Health Post,cb68d84f-01ce-4af4-a8c1-127889c97a5e,Kuki Health Post,Functional,Primary,Public,KD0106,eHA_Polio,Randagi,19001,Birnin Gwari,KD,Kaduna, , , , , , 
28,Point,sv_fc_healthcare_facilities.fid-65d4c550_169d91ba9ce_-5d1d,Point,6.274674,10.499608,geometry_type,10.499608,6.274674,Yes,2018-09-25T14:24:38Z,Unknown,Primary Health Center,08ddeca3-4923-4c76-8853-a753832f22eb,Kungi Primary Health Center,Functional,Primary,Public,KD0106,eHA_Polio,Randagi,19001,Birnin Gwari,KD,Kaduna, , , , , , 
29,Point,sv_fc_healthcare_facilities.fid-65d4c550_169d91ba9ce_-5d18,Point,6.216128,10.558658,geometry_type,10.558658,6.216128,Yes,2018-09-25T14:24:38Z,Unknown,Health Post,e730d2f3-9dad-4c05-927a-0f85dc3d00a0,Ijinga Health Post,Functional,Primary,Public,KD0106,eHA_Polio,Randagi,19001,Birnin Gwari,KD,Kaduna, , , , , , 
30,Point,sv_fc_healthcare_facilities.fid-65d4c550_169d91ba9ce_-5d12,Point,6.324485,10.560718,geometry_type,10.560718,6.324485,Yes,2018-09-25T14:24:39Z,Unknown,Primary Health Clinic,aa80578c-9e3f-4923-8a63-ca5892b6a22c,Dawakin Bassa Health Clinic,Functional,Primary,Public,KD0106,eHA_Polio,Randagi,19001,Birnin Gwari,KD,Kaduna, , , , , , 
31,Point,sv_fc_healthcare_facilities.fid-65d4c550_169d91ba9ce_-5d0a,Point,6.180888,10.606661,geometry_type,10.606661,6.180888,Unknown,2018-09-25T14:24:37Z,Unknown,Primary Health Center,c2e2679c-8e4f-48c6-9936-6dee3503e0a2,Randagi Kungi Primary Health Center,Unknown,Primary,Public,KD0106,eHA_Polio,Randagi,19001,Birnin Gwari,KD,Kaduna, , , , , , 
32,Point,sv_fc_healthcare_facilities.fid-65d4c550_169d91ba9ce_-5d07,Point,6.276391,10.552674,geometry_type,10.552674,6.276391,Unknown,2018-09-25T14:24:39Z,Unknown,Primary Health Clinic,83e4c232-0be7-4148-9406-415b02b856e5,Naserewa Health Clinic,Unknown,Primary,Public,KD0106,eHA_Polio,Randagi,19001,Birnin Gwari,KD,Kaduna, , , , , , 
33,Point,sv_fc_healthcare_facilities.fid-65d4c550_169d91ba9ce_-5d04,Point,6.383888,10.558537,geometry_type,10.558537,6.383888,Unknown,2018-09-25T14:24:33Z,Unknown,Primary Health Clinic,a334061e-ab42-4b0d-be47-28d4401a9c2a,Ungwan Baduku Health Clinic,Unknown,Primary,Public,KD0106,eHA_Polio,Randagi,19001,Birnin Gwari,KD,Kaduna, , , , , , 
34,Point,sv_fc_healthcare_facilities.fid-65d4c550_169d91ba9ce_-5cff,Point,7.04509,11.068093,geometry_type,11.068093,7.04509,Unknown,2018-09-25T14:24:38Z,Unknown,Primary Health Center,4c8aac7e-fcfe-4f91-85c8-9bf9d0f3ede3,Kazagi Primary Health Center,Unknown,Primary,Public,KD0107,eHA_Polio,Damari,19001,Birnin Gwari,KD,Kaduna, , , , , , 
35,Point,sv_fc_healthcare_facilities.fid-65d4c550_169d91ba9ce_-5ce5,Point,7.13267,11.041421,geometry_type,11.041421,7.13267,Yes,2018-09-25T14:24:37Z,Unknown,Health Post,d02b62a5-689c-4377-9df9-d8e9c5606031,Funtua Badadi Health Post,Functional,Primary,Public,KD0108,eHA_Polio,Dogondawa,19001,Birnin Gwari,KD,Kaduna, , , , , , 
36,Point,sv_fc_healthcare_facilities.fid-65d4c550_169d91ba9ce_-5cbf,Point,6.786675,11.266839,geometry_type,11.266839,6.786675,Unknown,2018-09-25T14:24:39Z,Unknown,Primary Health Clinic,1ef002d8-3d4d-4869-90c2-52e43f654f1f,Ungwan Zakara Health Clinic,Unknown,Primary,Public,KD0110,eHA_Polio,Kuyello,19001,Birnin Gwari,KD,Kaduna, , , , , , 
37,Point,sv_fc_healthcare_facilities.fid-65d4c550_169d91ba9ce_-5cb7,Point,6.940699,11.194757,geometry_type,11.194757,6.940699,Yes,2018-09-25T14:24:36Z,Unknown,Primary Health Clinic,eac87010-68d3-4342-96fa-941bd332a314,Shado Health Clinic,Functional,Primary,Public,KD0110,eHA_Polio,Kuyello,19001,Birnin Gwari,KD,Kaduna, , , , , , 
38,Point,sv_fc_healthcare_facilities.fid-65d4c550_169d91ba9ce_-5caf,Point,6.990913,11.18057,geometry_type,11.18057,6.990913,Unknown,2018-09-25T14:24:32Z,Unknown,Primary Health Center,0489e5ae-4054-4e7a-b700-d7c45b329c62,Kuyello Health Center,Unknown,Primary,Public,KD0110,eHA_Polio,Kuyello,19001,Birnin Gwari,KD,Kaduna, , , , , , 
39,Point,sv_fc_healthcare_facilities.fid-65d4c550_169d91ba9ce_-5ca3,Point,6.860694,11.33111,geometry_type,11.33111,6.860694,Unknown,2018-09-25T14:24:36Z,Unknown,Primary Health Center,92af360f-fd3c-4cca-bef9-e9daa6e2b92e,Maikiyasuwa 1 Health Clinic,Unknown,Primary,Public,KD0111,eHA_Polio,Tabanni,19001,Birnin Gwari,KD,Kaduna, , , , , , 
40,Point,sv_fc_healthcare_facilities.fid-65d4c550_169d91ba9ce_-5a33,Point,7.227391,10.257618,geometry_type,10.257618,7.227391,Unknown,2018-09-25T14:08:08Z,Unknown,Primary Health Center,a3071fc3-c85c-4ab1-80d5-ba854ed71181,Sunsunge Health Center,Unknown,Primary,Public,KD0202,eHA_Polio,Gwagwada,19002,Chikun,KD,Kaduna, , , , , , 
41,Point,sv_fc_healthcare_facilities.fid-65d4c550_169d91ba9ce_-5a2f,Point,7.302584,10.284391,geometry_type,10.284391,7.302584,Yes,2018-09-25T14:25:31Z,Unknown,Primary Health Clinic,aa62a6e8-1f08-44c1-9373-c248bf4012fb,Bakin Kasuwa Health Clinic,Functional,Primary,Public,KD0202,eHA_Polio,Gwagwada,19002,Chikun,KD,Kaduna, , , , , , 
42,Point,sv_fc_healthcare_facilities.fid-65d4c550_169d91ba9ce_-5a29,Point,7.188262,10.309466,geometry_type,10.309466,7.188262,Yes,2018-09-25T14:25:28Z,Unknown,Primary Health Clinic,bee4f885-ce01-418b-8bbb-b73e9b9b04f7,Unguwan Turai Clinic,Functional,Primary,Public,KD0202,eHA_Polio,Gwagwada,19002,Chikun,KD,Kaduna, , , , , , 
43,Point,sv_fc_healthcare_facilities.fid-65d4c550_169d91ba9ce_-5a26,Point,7.15999,10.19439,geometry_type,10.19439,7.15999,Yes,2018-09-25T14:24:29Z,Unknown,Primary Health Clinic,c9197250-40c9-4ab9-a9bd-d3ecf3594694,Kajari Clinic,Functional,Primary,Public,KD0202,eHA_Polio,Gwagwada,19002,Chikun,KD,Kaduna, , , , , , 
44,Point,sv_fc_healthcare_facilities.fid-65d4c550_169d91ba9ce_-5a1a,Point,7.401937,10.428825,geometry_type,10.428825,7.401937,Unknown,2018-09-25T14:25:27Z,Unknown,Primary Health Clinic,d5f671b8-ec73-4397-a619-5b557248a421,Adonai Medical Center Clinicandmaternity,Unknown,Primary,Public,KD0203,eHA_Polio,Kakau,19002,Chikun,KD,Kaduna, , , , , , 
45,Point,sv_fc_healthcare_facilities.fid-65d4c550_169d91ba9ce_-5a16,Point,7.455704,10.385283,geometry_type,10.385283,7.455704,Yes,2018-09-25T14:25:26Z,Unknown,Primary Health Center,557218dd-2312-479d-9336-60befba819b6,Kakau Daji Primary Health Center,Functional,Primary,Public,KD0203,eHA_Polio,Kakau,19002,Chikun,KD,Kaduna, , , , , , 
46,Point,sv_fc_healthcare_facilities.fid-65d4c550_169d91ba9ce_-5a11,Point,7.516141,10.33825,geometry_type,10.33825,7.516141,Unknown,2018-09-25T14:34:41Z,Unknown,Primary Health Center,98e491b1-6cb7-400a-b640-bbd0e303f96a,Primary Health Center Kamkomi,Functional,Primary,Others,KD0203,NPHCDA,Kakau,19002,Chikun,KD,Kaduna, , , , , , 
47,Point,sv_fc_healthcare_facilities.fid-65d4c550_169d91ba9ce_-5a0c,Point,7.394646,10.428531,geometry_type,10.428531,7.394646,Unknown,2018-09-25T14:25:38Z,Unknown,Private Clinic,720e5313-8673-4598-908e-335cf69e54eb,Shalom Hospital Gonin Gora Kaduna,Unknown,Tertiary,Private,KD0203,eHA_Polio,Kakau,19002,Chikun,KD,Kaduna, , , , , , 
48,Point,sv_fc_healthcare_facilities.fid-65d4c550_169d91ba9ce_-5a08,Point,7.407603,10.414335,geometry_type,10.414335,7.407603,Unknown,2018-09-25T14:34:39Z,Unknown,Private Clinic,bff31adf-ae47-4c39-8532-c74e4021d78c,Adonai Medical Center,Functional,Primary,Others,KD0203,NPHCDA,Kakau,19002,Chikun,KD,Kaduna, , , , , , 
49,Point,sv_fc_healthcare_facilities.fid-65d4c550_169d91ba9ce_-5a04,Point,7.395263,10.374951,geometry_type,10.374951,7.395263,Unknown,2018-09-25T14:25:29Z,Unknown,Primary Health Center,f7b77b21-8826-4396-9c8e-2c1d428c6bd3,Safiya Medical Center,Unknown,Primary,Public,KD0203,eHA_Polio,Kakau,19002,Chikun,KD,Kaduna, , , , , , 
50,Point,sv_fc_healthcare_facilities.fid-65d4c550_169d91ba9ce_-59fe,Point,7.405843,10.407762,geometry_type,10.407762,7.405843,Unknown,2018-09-25T14:46:34Z,Unknown,Unknown,824ed557-ed8f-43f4-ba3d-444075d7a1a3,Zaitun Clinic Buwaya,Unknown,Primary,Public,KD0203,eHA_Polio,Kakau,19002,Chikun,KD,Kaduna, , , , , , 
51,Point,sv_fc_healthcare_facilities.fid-65d4c550_169d91ba9ce_-59fb,Point,7.319846,10.485731,geometry_type,10.485731,7.319846,Unknown,2018-09-25T14:25:37Z,Unknown,Health Post,3b5faef9-23e1-42d5-a540-b5502fc52868,Layi Health Dispensary,Functional,Primary,Public,KD0203,eHA_Polio,Kakau,19002,Chikun,KD,Kaduna, , , , , , 
52,Point,sv_fc_healthcare_facilities.fid-65d4c550_169d91ba9ce_-59ed,Point,7.52166,10.335361,geometry_type,10.335361,7.52166,Yes,2018-09-25T14:25:29Z,Unknown,Primary Health Clinic,14aeb6af-9ea1-4f83-a2e5-c7ad2df59d48,Kankomi Health Clinic,Functional,Primary,Public,KD0203,eHA_Polio,Kakau,19002,Chikun,KD,Kaduna, , , , , , 
53,Point,sv_fc_healthcare_facilities.fid-65d4c550_169d91ba9ce_-59e9,Point,7.454625,10.342051,geometry_type,10.342051,7.454625,Unknown,2018-09-25T14:25:33Z,Unknown,Health Post,9f97ea04-79a0-40db-bb90-8dcc9a7b5612,Unguwar Ayaba Dispensary,Functional,Primary,Public,KD0203,eHA_Polio,Kakau,19002,Chikun,KD,Kaduna, , , , , , 
54,Point,sv_fc_healthcare_facilities.fid-65d4c550_169d91ba9ce_-59e5,Point,7.40709,10.40482,geometry_type,10.40482,7.40709,Unknown,2018-09-25T14:08:10Z,Unknown,Primary Health Clinic,d121a9b0-6a65-4399-a8b9-e074b33df242,Buwaya Health Clinic,Unknown,Primary,State Primary HealthCare Development Agency,KD0203,eHA_Polio,Kakau,19002,Chikun,KD,Kaduna, , , , , , 
55,Point,sv_fc_healthcare_facilities.fid-65d4c550_169d91ba9ce_-59e0,Point,7.401834,10.431226,geometry_type,10.431226,7.401834,Yes,2018-09-25T14:25:17Z,Unknown,Primary Health Center,c30ff28f-8907-42cc-98eb-a341ec51437e,Gonin Gora Primary Health Center,Functional,Primary,Public,KD0203,eHA_Polio,Kakau,19002,Chikun,KD,Kaduna, , , , , , 
56,Point,sv_fc_healthcare_facilities.fid-65d4c550_169d91ba9ce_-59dd,Point,7.385151,10.316808,geometry_type,10.316808,7.385151,Unknown,2018-09-25T14:25:27Z,Unknown,Primary Health Center,a9a47e73-4996-4518-b985-e54dee2ff3ae,Sabon Gayan Primary Health Center,Functional,Primary,Public,KD0203,eHA_Polio,Kakau,19002,Chikun,KD,Kaduna, , , , , , 
57,Point,sv_fc_healthcare_facilities.fid-65d4c550_169d91ba9ce_-59d9,Point,7.615971,10.528446,geometry_type,10.528446,7.615971,Yes,2018-09-25T14:25:29Z,Unknown,Primary Health Clinic,8a0d51d8-b6ce-41ca-81df-c939fcc7f428,Tokache Health Clinic,Functional,Primary,Public,KD0204,eHA_Polio,Kujama,19002,Chikun,KD,Kaduna, , , , , , 
58,Point,sv_fc_healthcare_facilities.fid-65d4c550_169d91ba9ce_-59d3,Point,7.650811,10.480873,geometry_type,10.480873,7.650811,Yes,2018-09-25T14:25:35Z,Unknown,Primary Health Center,0f5e152a-c711-4ffa-bcb2-c5c4e08db9a3,Rural Hospital Kujama,Functional,Primary,Public,KD0204,eHA_Polio,Kujama,19002,Chikun,KD,Kaduna, , , , , , 
59,Point,sv_fc_healthcare_facilities.fid-65d4c550_169d91ba9ce_-59ce,Point,7.548814,10.347705,geometry_type,10.347705,7.548814,Unknown,2018-09-25T14:25:40Z,Unknown,Primary Health Clinic,ea22666a-25ed-4bb4-9dec-c2b86e28b503,Kakau Health Clinic,Unknown,Primary,Public,KD0204,eHA_Polio,Kujama,19002,Chikun,KD,Kaduna, , , , , , 
60,Point,sv_fc_healthcare_facilities.fid-65d4c550_169d91ba9ce_-59ca,Point,7.631966,10.476299,geometry_type,10.476299,7.631966,Unknown,2018-09-25T14:25:26Z,Unknown,Private Clinic,48e64c59-e4f3-4a28-91d4-7237794006ca,Ab Nasara Nursing Home And Maternity,Unknown,Primary,Public,KD0204,eHA_Polio,Kujama,19002,Chikun,KD,Kaduna, , , , , , 
61,Point,sv_fc_healthcare_facilities.fid-65d4c550_169d91ba9ce_-59c5,Point,7.63348,10.48022,geometry_type,10.48022,7.63348,Unknown,2018-09-25T14:25:15Z,Unknown,Primary Health Clinic,04d4b91a-bf5b-4849-b30c-f3db351a8bfd,Salvation Health Clinic,Unknown,Primary,Public,KD0204,eHA_Polio,Kujama,19002,Chikun,KD,Kaduna, , , , , , 
62,Point,sv_fc_healthcare_facilities.fid-65d4c550_169d91ba9ce_-59c1,Point,7.637085,10.478271,geometry_type,10.478271,7.637085,Yes,2018-09-25T14:25:33Z,Unknown,Primary Health Center,01be02a2-017c-4fa8-9363-fb56394936c5,Salama Clinic,Unknown,Primary,State Primary HealthCare Development Agency,KD0204,eHA_Polio,Kujama,19002,Chikun,KD,Kaduna, , , , , , 
63,Point,sv_fc_healthcare_facilities.fid-65d4c550_169d91ba9ce_-59bd,Point,7.634277,10.478271,geometry_type,10.478271,7.634277,Unknown,2018-09-25T14:25:20Z,Unknown,Primary Health Clinic,948a756c-01ed-4777-99e1-80bd08858013,Sauki Clinic,Unknown,Primary,State Primary HealthCare Development Agency,KD0204,eHA_Polio,Kujama,19002,Chikun,KD,Kaduna, , , , , , 
64,Point,sv_fc_healthcare_facilities.fid-65d4c550_169d91ba9ce_-59b9,Point,7.528778,10.554472,geometry_type,10.554472,7.528778,Yes,2018-09-25T14:25:36Z,Unknown,Primary Health Center,0a4dbb73-db94-4afb-848f-c83cef21aa6a,Doka Primary Health Center,Functional,Primary,Public,KD0204,eHA_Polio,Kujama,19002,Chikun,KD,Kaduna, , , , , , 
65,Point,sv_fc_healthcare_facilities.fid-65d4c550_169d91ba9ce_-59b1,Point,7.638295,10.477357,geometry_type,10.477357,7.638295,Unknown,2018-09-25T14:25:39Z,Unknown,Private Clinic,3bab897f-0236-4f3f-af79-b694bc7dea71,Bennatu Taimako Clinic And Nursing Home,Unknown,Tertiary,Private,KD0204,eHA_Polio,Kujama,19002,Chikun,KD,Kaduna, , , , , , 
66,Point,sv_fc_healthcare_facilities.fid-65d4c550_169d91ba9ce_-59ad,Point,7.636726,10.478306,geometry_type,10.478306,7.636726,Unknown,2018-09-25T14:25:22Z,Unknown,Private Clinic,bc3cade2-3cde-48ff-8f36-5c2e404f025e,Salvation Clinic Tudun Wada,Unknown,Primary,Public,KD0204,eHA_Polio,Kujama,19002,Chikun,KD,Kaduna, , , , , , 
67,Point,sv_fc_healthcare_facilities.fid-65d4c550_169d91ba9ce_-59a7,Point,7.25985,10.61901,geometry_type,10.61901,7.25985,Unknown,2018-09-25T14:25:14Z,Unknown,Primary Health Clinic,eea5e310-53ec-438b-8ca1-cf5bf4019da5,Forest Maternity Clinc,Unknown,Primary,Public,KD0205,eHA_Polio,Kunai,19002,Chikun,KD,Kaduna, , , , , , 
68,Point,sv_fc_healthcare_facilities.fid-65d4c550_169d91ba9ce_-59a3,Point,7.204587,10.580788,geometry_type,10.580788,7.204587,Unknown,2018-09-25T14:25:32Z,Unknown,Primary Health Clinic,e7a1a482-f0d3-49ce-8afc-e1d536e41313,Dande Health Clinic,Functional,Primary,Public,KD0205,eHA_Polio,Kunai,19002,Chikun,KD,Kaduna, , , , , , 
69,Point,sv_fc_healthcare_facilities.fid-65d4c550_169d91ba9ce_-599e,Point,6.927152,10.631542,geometry_type,10.631542,6.927152,Yes,2018-09-25T14:24:35Z,Unknown,Primary Health Clinic,5cbd359c-b642-4bd9-b9ee-ed2e879f984b,Hijaba Clinic And Maternity,Unknown,Primary,Public,KD0205,eHA_Polio,Kunai,19002,Chikun,KD,Kaduna, , , , , , 
70,Point,sv_fc_healthcare_facilities.fid-65d4c550_169d91ba9ce_-599a,Point,7.224541,10.561893,geometry_type,10.561893,7.224541,Yes,2018-09-25T14:25:36Z,Unknown,Primary Health Clinic,e0509a94-57f3-4e1c-bdbb-adee88bcad57,Baranje Health Clinic,Functional,Primary,Public,KD0205,eHA_Polio,Kunai,19002,Chikun,KD,Kaduna, , , , , , 
71,Point,sv_fc_healthcare_facilities.fid-65d4c550_169d91ba9ce_-5995,Point,7.16494,10.63784,geometry_type,10.63784,7.16494,Unknown,2018-09-25T14:24:32Z,Unknown,Health Post,02654ed5-a7fe-47f3-a0fd-39f9aa2adf56,Rumana Gwan Health Post,Unknown,Primary,Public,KD0205,eHA_Polio,Kunai,19002,Chikun,KD,Kaduna, , , , , , 
72,Point,sv_fc_healthcare_facilities.fid-65d4c550_169d91ba9ce_-5992,Point,6.941897,10.635517,geometry_type,10.635517,6.941897,Yes,2018-09-25T14:24:38Z,Unknown,Primary Health Center,06f58936-f44f-4d5a-927c-93afb8df74ce,Udawa Primary Health Center,Functional,Primary,Public,KD0205,eHA_Polio,Kunai,19002,Chikun,KD,Kaduna, , , , , , 
73,Point,sv_fc_healthcare_facilities.fid-65d4c550_169d91ba9ce_-598e,Point,7.205735,10.483119,geometry_type,10.483119,7.205735,Yes,2018-09-25T14:25:41Z,Unknown,Primary Health Center,0d8df855-6d48-4735-88d1-6f782d0b079e,Kasaya Primary Health Center,Functional,Primary,Public,KD0205,eHA_Polio,Kunai,19002,Chikun,KD,Kaduna, , , , , , 
74,Point,sv_fc_healthcare_facilities.fid-65d4c550_169d91ba9ce_-598a,Point,7.230646,10.621479,geometry_type,10.621479,7.230646,Yes,2018-09-25T14:25:28Z,Unknown,Primary Health Center,b2eaae96-fe68-4409-b0f5-1bb4cf159e2d,Buruku Primary Health Center,Functional,Primary,Public,KD0205,eHA_Polio,Kunai,19002,Chikun,KD,Kaduna, , , , , , 
75,Point,sv_fc_healthcare_facilities.fid-65d4c550_169d91ba9ce_-5982,Point,7.23303,10.617091,geometry_type,10.617091,7.23303,Unknown,2018-09-25T14:25:20Z,Unknown,Private Clinic,56de7a30-48c7-4f5a-9322-8be3ad1f7558,Alheri Clinic And Matarnity,Unknown,Primary,Public,KD0205,eHA_Polio,Kunai,19002,Chikun,KD,Kaduna, , , , , , 
76,Point,sv_fc_healthcare_facilities.fid-65d4c550_169d91ba9ce_-597e,Point,7.23732,10.6196,geometry_type,10.6196,7.23732,Unknown,2018-09-25T14:25:14Z,Unknown,Primary Health Clinic,c41e6693-d96d-49b1-a768-82f03e36df0c,Hauwa Clinic Buruku,Unknown,Primary,Public,KD0205,eHA_Polio,Kunai,19002,Chikun,KD,Kaduna, , , , , , 
77,Point,sv_fc_healthcare_facilities.fid-65d4c550_169d91ba9ce_-5979,Point,6.928873,10.626905,geometry_type,10.626905,6.928873,Unknown,2018-09-25T14:24:36Z,Unknown,Primary Health Center,fff9d7fa-84b3-47d4-b219-e2eabcb452f1,Kauna Clinic,Unknown,Primary,Public,KD0205,eHA_Polio,Kunai,19002,Chikun,KD,Kaduna, , , , , , 
78,Point,sv_fc_healthcare_facilities.fid-65d4c550_169d91ba9ce_-5974,Point,6.926447,10.631615,geometry_type,10.631615,6.926447,Yes,2018-09-25T14:24:35Z,Unknown,Primary Health Center,f2f16a34-3e9a-4182-b8ef-32112de02a28,Jam Sago Clinic Udawa,Unknown,Primary,Public,KD0205,eHA_Polio,Kunai,19002,Chikun,KD,Kaduna, , , , , , 
79,Point,sv_fc_healthcare_facilities.fid-65d4c550_169d91ba9ce_-5971,Point,6.932495,10.633484,geometry_type,10.633484,6.932495,Unknown,2018-09-25T14:24:35Z,Unknown,Health Post,f3abc39e-48e6-45cf-b7d4-d375108bc9be,Rimi Clinic,Unknown,Primary,State Primary HealthCare Development Agency,KD0205,eHA_Polio,Kunai,19002,Chikun,KD,Kaduna, , , , , , 
80,Point,sv_fc_healthcare_facilities.fid-65d4c550_169d91ba9ce_-596d,Point,6.806447,10.701258,geometry_type,10.701258,6.806447,Unknown,2018-09-25T14:24:36Z,Unknown,Primary Health Clinic,bcfb641a-ca55-4b5d-9319-78f6ed95a54e,Shekwo Bagu Maternity,Unknown,Primary,Public,KD0206,eHA_Polio,Kuriga,19002,Chikun,KD,Kaduna, , , , , , 
81,Point,sv_fc_healthcare_facilities.fid-65d4c550_169d91ba9ce_-595f,Point,7.439758,10.451934,geometry_type,10.451934,7.439758,Yes,2018-09-25T14:25:23Z,Unknown,Private Clinic,0c7350d6-4c9e-4f15-9ca4-d7812b5b76ab,My Children Hospital,Unknown,Primary,Public,KD0207,eHA_Polio,Narayi,19002,Chikun,KD,Kaduna, , , , , , 
82,Point,sv_fc_healthcare_facilities.fid-65d4c550_169d91ba9ce_-595d,Point,7.441127,10.465544,geometry_type,10.465544,7.441127,Unknown,2018-09-25T14:34:39Z,Unknown,Primary Health Clinic,23a47183-86a6-416b-b410-670a3b1e4088,Bishini Health Clinic,Functional,Primary,Others,KD0207,NPHCDA,Narayi,19002,Chikun,KD,Kaduna, , , , , , 
83,Point,sv_fc_healthcare_facilities.fid-65d4c550_169d91ba9ce_-5959,Point,7.444661,10.475884,geometry_type,10.475884,7.444661,Yes,2018-09-25T14:25:41Z,Unknown,Laboratory,7a2970b9-d6d1-4052-bb99-54f43d8aa99d,Otmos Diagnose Narayi,Unknown,Tertiary,Private,KD0207,eHA_Polio,Narayi,19002,Chikun,KD,Kaduna, , , , , , 
84,Point,sv_fc_healthcare_facilities.fid-65d4c550_169d91ba9ce_-594e,Point,7.457369,10.476602,geometry_type,10.476602,7.457369,Unknown,2018-09-25T14:25:42Z,Unknown,Primary Health Clinic,1b5bb76e-092b-4295-b4a7-b5fa39224c5f,Bayan Dutse Primary Health Care,Functional,Primary,Public,KD0207,eHA_Polio,Narayi,19002,Chikun,KD,Kaduna, , , , , , 
85,Point,sv_fc_healthcare_facilities.fid-65d4c550_169d91ba9ce_-594a,Point,7.445335,10.450905,geometry_type,10.450905,7.445335,Unknown,2018-09-25T14:25:31Z,Unknown,Specialist Hospital,47066afa-4c6d-4376-9330-160d64fc3556,Dewas Specialist Hospital,Unknown,Tertiary,Private,KD0207,eHA_Polio,Narayi,19002,Chikun,KD,Kaduna, , , , , , 
86,Point,sv_fc_healthcare_facilities.fid-65d4c550_169d91ba9ce_-5946,Point,7.446573,10.475051,geometry_type,10.475051,7.446573,Yes,2018-09-25T14:25:26Z,Unknown,Private Clinic,b16937ee-f6e4-4e76-aa81-f3e838232e5b,Wilbasom Hospital Narayi,Unknown,Primary,Public,KD0207,eHA_Polio,Narayi,19002,Chikun,KD,Kaduna, , , , , , 
87,Point,sv_fc_healthcare_facilities.fid-65d4c550_169d91ba9ce_-5942,Point,7.44157,10.472705,geometry_type,10.472705,7.44157,Unknown,2018-09-25T14:25:37Z,Unknown,Primary Health Clinic,06cd4814-dcb1-45f8-88c5-c99c43f0512f,Tudun Muntsira Tuberclosis Maternity And Child Health Clinic Narayi,Functional,Primary,Public,KD0207,eHA_Polio,Narayi,19002,Chikun,KD,Kaduna, , , , , , 
88,Point,sv_fc_healthcare_facilities.fid-65d4c550_169d91ba9ce_-593e,Point,7.445854,10.464426,geometry_type,10.464426,7.445854,Yes,2018-09-25T14:25:24Z,Unknown,Primary Health Center,491ef50c-5c68-4b62-9395-31da9afc8d6b,Family Hospital Narayi,Unknown,Primary,Public,KD0207,eHA_Polio,Narayi,19002,Chikun,KD,Kaduna, , , , , , 
89,Point,sv_fc_healthcare_facilities.fid-65d4c550_169d91ba9ce_-5939,Point,7.445491,10.459623,geometry_type,10.459623,7.445491,Yes,2018-09-25T14:25:20Z,Unknown,Private Clinic,c4941966-73b7-4df2-90c9-5963bc42db24,El Shadia Clinic,Unknown,Tertiary,Private,KD0207,eHA_Polio,Narayi,19002,Chikun,KD,Kaduna, , , , , , 
90,Point,sv_fc_healthcare_facilities.fid-65d4c550_169d91ba9ce_-5935,Point,7.402635,10.473394,geometry_type,10.473394,7.402635,Yes,2018-09-25T14:25:20Z,Unknown,Primary Health Clinic,26b69095-4433-41ed-8cdb-9eccd9a61e12,Ecwa Maternity Home,Unknown,Primary,NGO/Humanitarian,KD0208,eHA_Polio,Nassarawa,19002,Chikun,KD,Kaduna, , , , , , 
91,Point,sv_fc_healthcare_facilities.fid-65d4c550_169d91ba9ce_-5933,Point,7.28018,10.485619,geometry_type,10.485619,7.28018,Yes,2018-09-25T14:25:30Z,Unknown,Primary Health Center,93bbdde9-352f-4726-a9f8-7568ffd8db87,Kadi Primary Health Center,Functional,Primary,Public,KD0208,eHA_Polio,Nassarawa,19002,Chikun,KD,Kaduna, , , , , , 
92,Point,sv_fc_healthcare_facilities.fid-65d4c550_169d91ba9ce_-5930,Point,7.397966,10.476101,geometry_type,10.476101,7.397966,Yes,2018-09-25T14:25:14Z,Unknown,Primary Health Clinic,1fe3c2e8-f787-4a67-880e-7998cc88792f,Sanasi Nursing And Maternity Home,Functional,Primary,Public,KD0208,eHA_Polio,Nassarawa,19002,Chikun,KD,Kaduna, , , , , , 
93,Point,sv_fc_healthcare_facilities.fid-65d4c550_169d91ba9ce_-5927,Point,7.395301,10.471183,geometry_type,10.471183,7.395301,Unknown,2018-09-25T14:25:34Z,Unknown,Primary Health Clinic,73c1389f-cc38-449a-b8e4-617e71e568fc,Al Ramadan Nursing And Maternity Home Nassarawa,Unknown,Primary,Public,KD0208,eHA_Polio,Nassarawa,19002,Chikun,KD,Kaduna, , , , , , 
94,Point,sv_fc_healthcare_facilities.fid-65d4c550_169d91ba9ce_-5923,Point,7.398746,10.470536,geometry_type,10.470536,7.398746,Yes,2018-09-25T14:25:32Z,Unknown,Primary Health Center,29f91cbb-e614-46c6-a84e-bbf26131e087,Primary Health Center Nassarawa,Unknown,Primary,Others,KD0208,NPHCDA,Nassarawa,19002,Chikun,KD,Kaduna, , , , , , 
95,Point,sv_fc_healthcare_facilities.fid-65d4c550_169d91ba9ce_-591e,Point,7.49653,10.404456,geometry_type,10.404456,7.49653,Unknown,2018-09-25T14:08:10Z,Unknown,Primary Health Center,642eef86-564f-4885-b879-3a37a68fb946,Primary Health Center Rido,Unknown,Primary,Others,KD0209,NPHCDA,Rido,19002,Chikun,KD,Kaduna, , , , , , 
96,Point,sv_fc_healthcare_facilities.fid-65d4c550_169d91ba9ce_-591a,Point,7.474633,10.509146,geometry_type,10.509146,7.474633,Yes,2018-09-25T14:25:28Z,Unknown,Primary Health Center,a26a7a4b-da08-46c1-b4c0-7395a4815bc5,Rido Primary Health Center,Functional,Primary,Public,KD0209,eHA_Polio,Rido,19002,Chikun,KD,Kaduna, , , , , , 
97,Point,sv_fc_healthcare_facilities.fid-65d4c550_169d91ba9ce_-5915,Point,7.484628,10.467205,geometry_type,10.467205,7.484628,Yes,2018-09-25T14:25:27Z,Unknown,Primary Health Clinic,58ab980e-6795-4bd6-807d-ac09f27c9740,Kamazou Health Clinic,Functional,Primary,Public,KD0209,eHA_Polio,Rido,19002,Chikun,KD,Kaduna, , , , , , 
98,Point,sv_fc_healthcare_facilities.fid-65d4c550_169d91ba9ce_-5911,Point,7.492803,10.471859,geometry_type,10.471859,7.492803,Yes,2018-09-25T14:25:22Z,Unknown,Health Post,e4cdb59d-78a7-4010-9924-e258b3942151,Bagado Dispensary Clinic,Functional,Primary,Public,KD0209,eHA_Polio,Rido,19002,Chikun,KD,Kaduna, , , , , , 
99,Point,sv_fc_healthcare_facilities.fid-65d4c550_169d91ba9ce_-590d,Point,7.484323,10.538192,geometry_type,10.538192,7.484323,Unknown,2018-09-25T14:25:28Z,Unknown,Health Post,1239206d-fa85-4382-95fd-e7aa87d90ca9,Dan Bushiya Dispensary,Functional,Primary,Public,KD0209,eHA_Polio,Rido,19002,Chikun,KD,Kaduna, , , , , , 
100,Point,sv_fc_healthcare_facilities.fid-65d4c550_169d91ba9ce_-5904,Point,7.489547,10.525952,geometry_type,10.525952,7.489547,Unknown,2018-09-25T14:25:28Z,Unknown,Health Post,e77f8dab-5e16-4409-bcf0-779e8bed1b69,Dan Honu A Dispensary Clinic,Functional,Primary,Public,KD0209,eHA_Polio,Rido,19002,Chikun,KD,Kaduna, , , , , , 
101,Point,sv_fc_healthcare_facilities.fid-65d4c550_169d91ba9ce_-5900,Point,7.37904,10.47819,geometry_type,10.47819,7.37904,Unknown,2018-09-25T14:25:14Z,Unknown,Primary Health Clinic,0070d186-ef0b-4c29-8ab6-59c90d964970,Henlong Medical Clinic And Maternity,Unknown,Primary,Public,KD0210,eHA_Polio,Sabon Gari Nassarawa,19002,Chikun,KD,Kaduna, , , , , , 
102,Point,sv_fc_healthcare_facilities.fid-65d4c550_169d91ba9ce_-58fc,Point,7.398112,10.4601,geometry_type,10.4601,7.398112,Unknown,2018-09-25T14:25:26Z,Unknown,Primary Health Center,42683e6c-93ba-40fe-88ea-e0f7832ea262,Nassarawa Primary Health Center,Unknown,Primary,Public,KD0210,eHA_Polio,Sabon Gari Nassarawa,19002,Chikun,KD,Kaduna, , , , , , 
103,Point,sv_fc_healthcare_facilities.fid-65d4c550_169d91ba9ce_-58f7,Point,7.39302,10.46412,geometry_type,10.46412,7.39302,Unknown,2018-09-25T14:25:15Z,Unknown,Primary Health Clinic,a357435e-c4ef-48ca-b52a-5d971d0fb6df,Top Clinic And Maternity,Unknown,Primary,Public,KD0210,eHA_Polio,Sabon Gari Nassarawa,19002,Chikun,KD,Kaduna, , , , , , 
104,Point,sv_fc_healthcare_facilities.fid-65d4c550_169d91ba9ce_-58ee,Point,7.48256,10.44216,geometry_type,10.44216,7.48256,Yes,2018-09-25T14:08:10Z,Unknown,Federal Staff Clinic,761b318c-9b22-4cde-b08d-6fa8d3bf4352,Nnpc Clinic,Functional,Secondary,Federal Agency,KD0211,eHA_Polio,Sabon Tasha,19002,Chikun,KD,Kaduna, , , , , , 
105,Point,sv_fc_healthcare_facilities.fid-65d4c550_169d91ba9ce_-58e9,Point,7.46622,10.45148,geometry_type,10.45148,7.46622,Yes,2018-09-25T14:25:15Z,Unknown,Primary Health Clinic,fe406ae6-493f-4621-92e8-2e505e81abf4,Trinity Nursing And Maternity Home,Unknown,Primary,Public,KD0211,eHA_Polio,Sabon Tasha,19002,Chikun,KD,Kaduna, , , , , , 
106,Point,sv_fc_healthcare_facilities.fid-65d4c550_169d91ba9ce_-58e5,Point,7.452659,10.452762,geometry_type,10.452762,7.452659,Yes,2018-09-25T14:25:24Z,Unknown,Private Clinic,5284daac-6e42-452e-ada1-37f3bac0adcb,Doctors Clinic,Functional,Primary,Public,KD0211,eHA_Polio,Sabon Tasha,19002,Chikun,KD,Kaduna, , , , , , 
107,Point,sv_fc_healthcare_facilities.fid-65d4c550_169d91ba9ce_-58e2,Point,7.451339,10.448713,geometry_type,10.448713,7.451339,Yes,2018-09-25T14:25:22Z,Unknown,Primary Health Clinic,1aee9f1f-4013-4fca-bff6-a775a797089f,Endurance Maternity Home,Unknown,Primary,Public,KD0211,eHA_Polio,Sabon Tasha,19002,Chikun,KD,Kaduna, , , , , , 
108,Point,sv_fc_healthcare_facilities.fid-65d4c550_169d91ba9ce_-58df,Point,7.46421,10.46175,geometry_type,10.46175,7.46421,Yes,2018-09-25T14:25:15Z,Unknown,Private Clinic,8d3c8d39-fb7d-4024-81ac-0bbe94ca29de,Faith Clinic U Pama,Unknown,Primary,NGO/Humanitarian,KD0211,eHA_Polio,Sabon Tasha,19002,Chikun,KD,Kaduna, , , , , , 
109,Point,sv_fc_healthcare_facilities.fid-65d4c550_169d91ba9ce_-58db,Point,7.452703,10.44406,geometry_type,10.44406,7.452703,Unknown,2018-09-25T14:25:42Z,Unknown,Primary Health Clinic,c2ebd822-bc70-48cc-8e1b-5884cf800a31,Ag Lima County Clinic And Maternity,Unknown,Primary,Public,KD0211,eHA_Polio,Sabon Tasha,19002,Chikun,KD,Kaduna, , , , , , 
110,Point,sv_fc_healthcare_facilities.fid-65d4c550_169d91ba9ce_-58d4,Point,7.454063,10.453717,geometry_type,10.453717,7.454063,Unknown,2018-09-25T14:25:23Z,Unknown,Private Clinic,248f773e-12b2-4b04-ab69-d858d12e1fc1,Jefanel Hospital,Unknown,Tertiary,Private,KD0211,eHA_Polio,Sabon Tasha,19002,Chikun,KD,Kaduna, , , , , , 
111,Point,sv_fc_healthcare_facilities.fid-65d4c550_169d91ba9ce_-58cb,Point,7.456451,10.453306,geometry_type,10.453306,7.456451,Yes,2018-09-25T14:25:31Z,Unknown,Private Clinic,5afb353e-2ca6-498e-8270-b6c88d8a8534,Nebina Special Clinic,Unknown,Primary,Public,KD0211,eHA_Polio,Sabon Tasha,19002,Chikun,KD,Kaduna, , , , , , 
112,Point,sv_fc_healthcare_facilities.fid-65d4c550_169d91ba9ce_-58c7,Point,7.434502,10.447234,geometry_type,10.447234,7.434502,Unknown,2018-09-25T14:25:33Z,Unknown,Primary Health Clinic,427c3e96-e3fd-4c52-8758-e8237b0eda3d,Cocin Clinic And Maternity,Unknown,Primary,NGO/Humanitarian,KD0212,eHA_Polio,Yelwa,19002,Chikun,KD,Kaduna, , , , , , 
113,Point,sv_fc_healthcare_facilities.fid-65d4c550_169d91ba9ce_-58bf,Point,7.436892,10.445983,geometry_type,10.445983,7.436892,Unknown,2018-09-25T14:45:51Z,Unknown,Private Non Profit,84ff7ea9-34d1-4836-8937-3bca957f52de,Ecwa Community Health Programe,Unknown,Primary,NGO/Humanitarian,KD0212,eHA_Polio,Yelwa,19002,Chikun,KD,Kaduna, , , , , , 
114,Point,sv_fc_healthcare_facilities.fid-65d4c550_169d91ba9ce_-58bb,Point,7.424126,10.431591,geometry_type,10.431591,7.424126,Yes,2018-09-25T14:25:33Z,Unknown,Private Clinic,caf76ce4-ee7a-4a44-a334-25283f25780b,Gimo Clinic Bubasauri Road,Unknown,Primary,Public,KD0212,eHA_Polio,Yelwa,19002,Chikun,KD,Kaduna, , , , , , 
115,Point,sv_fc_healthcare_facilities.fid-65d4c550_169d91ba9ce_-58b8,Point,7.435021,10.449079,geometry_type,10.449079,7.435021,Unknown,2018-09-25T14:25:41Z,Unknown,Private Clinic,af26987e-758b-41cb-af2a-2f7a9575632a,Lecron Dental Clinic,Functional,Tertiary,Private,KD0212,eHA_Polio,Yelwa,19002,Chikun,KD,Kaduna, , , , , , 
116,Point,sv_fc_healthcare_facilities.fid-65d4c550_169d91ba9ce_-58b3,Point,7.42259,10.435098,geometry_type,10.435098,7.42259,Unknown,2018-09-25T14:25:28Z,Unknown,Private Clinic,1a30a3d7-bdae-4cfa-93b0-8f06e09e90b2,Jassy Clinic Sarki Street,Unknown,Primary,Public,KD0212,eHA_Polio,Yelwa,19002,Chikun,KD,Kaduna, , , , , , 
117,Point,sv_fc_healthcare_facilities.fid-65d4c550_169d91ba9ce_-58af,Point,7.409957,10.435225,geometry_type,10.435225,7.409957,Yes,2018-09-25T14:25:20Z,Unknown,Private Clinic,0cd8aad9-f421-4276-942c-6b9b3d851334,Mercy Home Clinic,Unknown,Primary,Public,KD0212,eHA_Polio,Yelwa,19002,Chikun,KD,Kaduna, , , , , , 
118,Point,sv_fc_healthcare_facilities.fid-65d4c550_169d91ba9ce_-58a8,Point,7.428553,10.43376,geometry_type,10.43376,7.428553,Unknown,2018-09-25T14:25:37Z,Unknown,Private Clinic,c9be0dd4-3ff1-486b-a32a-f4cd35986b04,Ejiro Home,Unknown,Primary,Public,KD0212,eHA_Polio,Yelwa,19002,Chikun,KD,Kaduna, , , , , , 
119,Point,sv_fc_healthcare_facilities.fid-65d4c550_169d91ba9ce_-58a3,Point,7.438065,10.44912,geometry_type,10.44912,7.438065,Unknown,2018-09-25T14:25:32Z,Unknown,Private Clinic,c66f391d-c805-49a0-9640-907399e9fbb7,Trinity Hospital,Unknown,Primary,Public,KD0212,eHA_Polio,Yelwa,19002,Chikun,KD,Kaduna, , , , , , 
120,Point,sv_fc_healthcare_facilities.fid-65d4c550_169d91ba9ce_-589f,Point,7.581137,11.298457,geometry_type,11.298457,7.581137,Yes,2018-09-25T14:25:27Z,Unknown,Primary Health Center,b0500ea8-4200-48d6-803f-ba85738577b3,Kuringa Health Facility,Functional,Primary,Public,KD0301,eHA_Polio,Danmahawayi,19003,Giwa,KD,Kaduna, , , , , , 
121,Point,sv_fc_healthcare_facilities.fid-65d4c550_169d91ba9ce_-5890,Point,7.531329,11.308638,geometry_type,11.308638,7.531329,Yes,2018-09-25T14:25:40Z,Unknown,Primary Health Center,cd474abb-9de7-456e-bbb2-89be3530e030,Ganuwa Health Facility,Functional,Primary,Public,KD0301,eHA_Polio,Danmahawayi,19003,Giwa,KD,Kaduna, , , , , , 
122,Point,sv_fc_healthcare_facilities.fid-65d4c550_169d91ba9ce_-588b,Point,7.549453,11.276913,geometry_type,11.276913,7.549453,Unknown,2018-09-25T14:34:39Z,Unknown,Health Post,8ec0db5d-22ff-4ea0-83e2-3c0074cac656,Danmahawayi Health Post,Functional,Primary,Others,KD0301,NPHCDA,Danmahawayi,19003,Giwa,KD,Kaduna, , , , , , 
123,Point,sv_fc_healthcare_facilities.fid-65d4c550_169d91ba9ce_-5888,Point,7.549999,11.253423,geometry_type,11.253423,7.549999,Yes,2018-09-25T14:25:27Z,Unknown,Primary Health Center,5eb284e5-fb58-47ad-b0c8-c7baa9293e3b,Tashar Guga Health Facility,Functional,Primary,Public,KD0301,eHA_Polio,Danmahawayi,19003,Giwa,KD,Kaduna, , , , , , 
124,Point,sv_fc_healthcare_facilities.fid-65d4c550_169d91ba9ce_-5883,Point,7.287091,11.078136,geometry_type,11.078136,7.287091,Yes,2018-09-25T14:25:18Z,Unknown,Primary Health Clinic,79c7eafe-10e5-4556-bf8a-41981c6a41b5,Tumburku Health Clinic,Functional,Primary,Public,KD0302,eHA_Polio,Galadimawa,19003,Giwa,KD,Kaduna, , , , , , 
125,Point,sv_fc_healthcare_facilities.fid-65d4c550_169d91ba9ce_-587d,Point,7.322734,11.059765,geometry_type,11.059765,7.322734,Unknown,2018-09-25T14:34:39Z,Unknown,Primary Health Center,0900a018-b2db-4d59-a350-e96efaf1765d,Primary Health Center Galadimawa,Functional,Primary,Others,KD0302,NPHCDA,Galadimawa,19003,Giwa,KD,Kaduna, , , , , , 
126,Point,sv_fc_healthcare_facilities.fid-65d4c550_169d91ba9ce_-5879,Point,7.285533,11.136856,geometry_type,11.136856,7.285533,Yes,2018-09-25T14:25:17Z,Unknown,Health Post,9d5ef8a7-e46f-4f44-8e45-d540a2fc1514,Rafin Sarki Health Post,Functional,Primary,Public,KD0302,eHA_Polio,Galadimawa,19003,Giwa,KD,Kaduna, , , , , , 
127,Point,sv_fc_healthcare_facilities.fid-65d4c550_169d91ba9ce_-5875,Point,7.284911,11.021581,geometry_type,11.021581,7.284911,Yes,2018-09-25T14:25:39Z,Unknown,Primary Health Clinic,1df99606-167b-4cb7-bac4-a41f6e73f153,Madugu Health Clinic,Functional,Primary,Public,KD0302,eHA_Polio,Galadimawa,19003,Giwa,KD,Kaduna, , , , , , 
128,Point,sv_fc_healthcare_facilities.fid-65d4c550_169d91ba9ce_-586f,Point,7.267656,11.09789,geometry_type,11.09789,7.267656,Unknown,2018-09-25T14:25:28Z,Unknown,Primary Health Clinic,d6cc1147-7b92-4a66-b70f-836b492a9f0b,Sada Health Clinic,Functional,Primary,Public,KD0302,eHA_Polio,Galadimawa,19003,Giwa,KD,Kaduna, , , , , , 
129,Point,sv_fc_healthcare_facilities.fid-65d4c550_169d91ba9ce_-5863,Point,7.477577,11.364977,geometry_type,11.364977,7.477577,Yes,2018-09-25T14:25:22Z,Unknown,Primary Health Clinic,4c3848c3-6905-4364-8592-003ca21d9b70,Dundubus Health Clinic,Functional,Primary,Public,KD0303,eHA_Polio,Gangara,19003,Giwa,KD,Kaduna, , , , , , 
130,Point,sv_fc_healthcare_facilities.fid-65d4c550_169d91ba9ce_-585e,Point,7.497842,11.346479,geometry_type,11.346479,7.497842,Yes,2018-09-25T14:25:42Z,Unknown,Primary Health Center,6c486881-bb8f-4a82-80a7-ff48d59a349d,Bomawa Health Center,Functional,Primary,Public,KD0303,eHA_Polio,Gangara,19003,Giwa,KD,Kaduna, , , , , , 
131,Point,sv_fc_healthcare_facilities.fid-65d4c550_169d91ba9ce_-585b,Point,7.468194,11.316916,geometry_type,11.316916,7.468194,Yes,2018-09-25T14:25:30Z,Unknown,Primary Health Clinic,e328a80c-5f48-4e7b-a283-af512cc39f97,Madara Health Clinic,Functional,Primary,Public,KD0303,eHA_Polio,Gangara,19003,Giwa,KD,Kaduna, , , , , , 
132,Point,sv_fc_healthcare_facilities.fid-65d4c550_169d91ba9ce_-5855,Point,7.380604,11.306664,geometry_type,11.306664,7.380604,Yes,2018-09-25T14:25:42Z,Unknown,Primary Health Clinic,18304bc3-7106-48e6-b470-a2dbeb5670ef,Tsabtawa Primary Health Clinic,Functional,Primary,Public,KD0303,eHA_Polio,Gangara,19003,Giwa,KD,Kaduna, , , , , , 
133,Point,sv_fc_healthcare_facilities.fid-65d4c550_169d91ba9ce_-584d,Point,7.423305,11.318875,geometry_type,11.318875,7.423305,Unknown,2018-09-25T14:34:39Z,Unknown,Primary Health Clinic,997478f3-ce4d-41ab-90be-00eff5912cf4,Health Clinic Janbaba,Functional,Primary,Others,KD0304,NPHCDA,Giwa,19003,Giwa,KD,Kaduna, , , , , , 
134,Point,sv_fc_healthcare_facilities.fid-65d4c550_169d91ba9ce_-584a,Point,7.435701,11.340149,geometry_type,11.340149,7.435701,Yes,2018-09-25T14:25:32Z,Unknown,Primary Health Clinic,14ab923b-0c48-4e06-a1ca-91b3be570b81,Wardanga Health Clinic,Functional,Primary,Public,KD0304,eHA_Polio,Giwa,19003,Giwa,KD,Kaduna, , , , , , 
135,Point,sv_fc_healthcare_facilities.fid-65d4c550_169d91ba9ce_-5841,Point,7.417749,11.277324,geometry_type,11.277324,7.417749,Yes,2018-09-25T14:25:19Z,Unknown,Primary Health Clinic,d8ee536b-5841-4539-8255-0639d96ecae7,Mujedawa Health Clinic,Functional,Primary,Public,KD0304,eHA_Polio,Giwa,19003,Giwa,KD,Kaduna, , , , , , 
136,Point,sv_fc_healthcare_facilities.fid-65d4c550_169d91ba9ce_-583c,Point,7.468856,11.254923,geometry_type,11.254923,7.468856,Unknown,2018-09-25T14:25:24Z,Unknown,Health Post,093fa6ee-7567-4176-8c9c-b299e95e2318,Giwa Dispensary,Unknown,Primary,Public,KD0304,eHA_Polio,Giwa,19003,Giwa,KD,Kaduna, , , , , , 
137,Point,sv_fc_healthcare_facilities.fid-65d4c550_169d91ba9ce_-583a,Point,7.447679,11.318665,geometry_type,11.318665,7.447679,Yes,2018-09-25T14:08:11Z,Unknown,Primary Health Clinic,75bf1155-626c-4051-8949-4ff7cd3c0bf8,Muje Dawa Health Clinic,Unknown,Primary,State Primary HealthCare Development Agency,KD0304,eHA_Polio,Giwa,19003,Giwa,KD,Kaduna, , , , , , 
138,Point,sv_fc_healthcare_facilities.fid-65d4c550_169d91ba9ce_-5837,Point,7.201336,11.163676,geometry_type,11.163676,7.201336,Yes,2018-09-25T14:25:21Z,Unknown,Health Post,368ee9c0-3a6f-46f1-92e2-aa5ed2826d10,Yalwan Nuhu South Health Post,Functional,Primary,Public,KD0305,eHA_Polio,Idasu,19003,Giwa,KD,Kaduna, , , , , , 
139,Point,sv_fc_healthcare_facilities.fid-65d4c550_169d91ba9ce_-5835,Point,7.22836,11.180424,geometry_type,11.180424,7.22836,Yes,2018-09-25T14:25:28Z,Unknown,Health Post,3ae1bac1-ec28-4614-bd3f-be78f55ca4b9,Idasu Health Post,Functional,Primary,Public,KD0305,eHA_Polio,Idasu,19003,Giwa,KD,Kaduna, , , , , , 
140,Point,sv_fc_healthcare_facilities.fid-65d4c550_169d91ba9ce_-5832,Point,7.297354,11.163066,geometry_type,11.163066,7.297354,Unknown,2018-09-25T14:25:32Z,Unknown,Primary Health Clinic,189a65ac-56d7-494c-8718-663ab0cdc913,Kofar Fada Primary Health Care,Functional,Primary,Public,KD0305,eHA_Polio,Idasu,19003,Giwa,KD,Kaduna, , , , , , 
141,Point,sv_fc_healthcare_facilities.fid-65d4c550_169d91ba9ce_-582f,Point,7.264296,11.175345,geometry_type,11.175345,7.264296,Yes,2018-09-25T14:25:17Z,Unknown,Health Post,80f9cb7f-6d7b-42e4-81ab-9f7592b186d6,Ruheya Health Post,Functional,Primary,Public,KD0305,eHA_Polio,Idasu,19003,Giwa,KD,Kaduna, , , , , , 
142,Point,sv_fc_healthcare_facilities.fid-65d4c550_169d91ba9ce_-582b,Point,7.203823,11.146447,geometry_type,11.146447,7.203823,Unknown,2018-09-25T14:25:23Z,Unknown,Health Post,ec1ba178-0b35-41c8-8eb6-e509bfa9b490,Jigo Gari Health Post,Functional,Primary,Public,KD0305,eHA_Polio,Idasu,19003,Giwa,KD,Kaduna, , , , , , 
143,Point,sv_fc_healthcare_facilities.fid-65d4c550_169d91ba9ce_-5828,Point,7.189393,11.113897,geometry_type,11.113897,7.189393,Unknown,2018-09-25T14:25:23Z,Unknown,Health Post,33fb21a7-f582-4960-9b2d-54a3283bfdb8,Nassarawa Mugaba Health Post,Functional,Primary,Public,KD0305,eHA_Polio,Idasu,19003,Giwa,KD,Kaduna, , , , , , 
144,Point,sv_fc_healthcare_facilities.fid-65d4c550_169d91ba9ce_-5824,Point,7.2986,11.219307,geometry_type,11.219307,7.2986,Unknown,2018-09-25T14:25:18Z,Unknown,Health Post,270afbcb-0127-491b-b69e-48fd1e3e5706,Dako Masallaci Health Post,Functional,Primary,Public,KD0305,eHA_Polio,Idasu,19003,Giwa,KD,Kaduna, , , , , , 
145,Point,sv_fc_healthcare_facilities.fid-65d4c550_169d91ba9ce_-5822,Point,7.471253,11.152677,geometry_type,11.152677,7.471253,Yes,2018-09-25T14:25:34Z,Unknown,Primary Health Clinic,673ba66c-30dc-4593-a0d0-4564319b6214,Kuramaka Health Clinic,Functional,Primary,Public,KD0306,eHA_Polio,Kakangi,19003,Giwa,KD,Kaduna, , , , , , 
146,Point,sv_fc_healthcare_facilities.fid-65d4c550_169d91ba9ce_-5821,Point,7.474118,11.203136,geometry_type,11.203136,7.474118,Yes,2018-09-25T14:25:36Z,Unknown,Health Post,836ef752-bd77-44ea-ac6f-2eca6000ea8a,Barin Malamai Health Post,Functional,Primary,Public,KD0306,eHA_Polio,Kakangi,19003,Giwa,KD,Kaduna, , , , , , 
147,Point,sv_fc_healthcare_facilities.fid-65d4c550_169d91ba9ce_-581f,Point,7.457148,11.243458,geometry_type,11.243458,7.457148,Unknown,2018-09-25T14:25:18Z,Unknown,Health Post,88cb0d1f-8b93-49f2-b444-5a0ae9b59eca,Sabon Birni Health Post,Functional,Primary,Public,KD0306,eHA_Polio,Kakangi,19003,Giwa,KD,Kaduna, , , , , , 
148,Point,sv_fc_healthcare_facilities.fid-65d4c550_169d91ba9ce_-5816,Point,7.409228,11.230244,geometry_type,11.230244,7.409228,Yes,2018-09-25T14:25:23Z,Unknown,Health Post,29b17722-8180-44b3-94c7-2e17a2a96b5c,Dokan Dan Magaji Health Post,Functional,Primary,Public,KD0306,eHA_Polio,Kakangi,19003,Giwa,KD,Kaduna, , , , , , 
149,Point,sv_fc_healthcare_facilities.fid-65d4c550_169d91ba9ce_-580c,Point,7.267482,11.010194,geometry_type,11.010194,7.267482,Unknown,2018-09-25T14:25:17Z,Unknown,Health Post,83b85bb4-4d28-4613-9a3f-dd6014037ed5,Toroko Health Post,Functional,Primary,Public,KD0307,eHA_Polio,Kidandan,19003,Giwa,KD,Kaduna, , , , , , 
150,Point,sv_fc_healthcare_facilities.fid-65d4c550_169d91ba9ce_-580a,Point,7.16439,10.887522,geometry_type,10.887522,7.16439,Yes,2018-09-25T14:24:33Z,Unknown,Primary Health Clinic,48eaf026-2bf6-46d0-b771-037716ad8a47,Maidaro Health Clinic,Functional,Primary,Public,KD0307,eHA_Polio,Kidandan,19003,Giwa,KD,Kaduna, , , , , , 
151,Point,sv_fc_healthcare_facilities.fid-65d4c550_169d91ba9ce_-5805,Point,7.143539,10.964568,geometry_type,10.964568,7.143539,Yes,2018-09-25T14:24:34Z,Unknown,Primary Health Clinic,6538f193-1993-4015-a867-fd9c3a5d46ae,Sabon Fili Primary Health Care,Functional,Primary,Public,KD0307,eHA_Polio,Kidandan,19003,Giwa,KD,Kaduna, , , , , , 
152,Point,sv_fc_healthcare_facilities.fid-65d4c550_169d91ba9ce_-57ff,Point,7.232904,11.070301,geometry_type,11.070301,7.232904,Yes,2018-09-25T14:25:32Z,Unknown,Primary Health Center,1f36a8d7-83b1-4291-812b-d85a995de829,Sabon Sara Health Center,Functional,Primary,Public,KD0307,eHA_Polio,Kidandan,19003,Giwa,KD,Kaduna, , , , , , 
153,Point,sv_fc_healthcare_facilities.fid-65d4c550_169d91ba9ce_-57fa,Point,7.394366,11.059856,geometry_type,11.059856,7.394366,Unknown,2018-09-25T14:25:22Z,Unknown,Private Clinic,adefb18b-bb39-44b0-975e-47b3472b1c01,Iyatawa Nursing And Convalacent Home,Unknown,Primary,Public,KD0307,eHA_Polio,Kidandan,19003,Giwa,KD,Kaduna, , , , , , 
154,Point,sv_fc_healthcare_facilities.fid-65d4c550_169d91ba9ce_-57f6,Point,7.395599,11.059386,geometry_type,11.059386,7.395599,Yes,2018-09-25T14:25:19Z,Unknown,Private Clinic,75a79a5b-bb79-416b-b0b2-bd7d4c83c800,Rahama Sauki Chemist Iyatawa,Unknown,Tertiary,Private,KD0307,eHA_Polio,Kidandan,19003,Giwa,KD,Kaduna, , , , , , 
155,Point,sv_fc_healthcare_facilities.fid-65d4c550_169d91ba9ce_-57f2,Point,7.586675,11.160337,geometry_type,11.160337,7.586675,Yes,2018-09-25T14:25:31Z,Unknown,Primary Health Clinic,42b42782-3d85-4ff5-be7d-b5651fdf5f82,Biye Health Clinic,Functional,Primary,Public,KD0308,eHA_Polio,Panhauya,19003,Giwa,KD,Kaduna, , , , , , 
156,Point,sv_fc_healthcare_facilities.fid-65d4c550_169d91ba9ce_-57ed,Point,7.568043,11.145677,geometry_type,11.145677,7.568043,Yes,2018-09-25T14:25:27Z,Unknown,Primary Health Clinic,1c60ab67-1a2e-48d8-bed4-123f5a768894,Bijimi Health Clinic,Functional,Primary,Public,KD0308,eHA_Polio,Panhauya,19003,Giwa,KD,Kaduna, , , , , , 
157,Point,sv_fc_healthcare_facilities.fid-65d4c550_169d91ba9ce_-57e6,Point,7.499704,11.159346,geometry_type,11.159346,7.499704,Yes,2018-09-25T14:25:32Z,Unknown,Health Post,b645e2e4-6374-4ffa-8c7c-b52f966e9086,Tawatsu Health Post,Functional,Primary,Public,KD0309,eHA_Polio,Shika,19003,Giwa,KD,Kaduna, , , , , , 
158,Point,sv_fc_healthcare_facilities.fid-65d4c550_169d91ba9ce_-57e4,Point,7.5394,11.21704,geometry_type,11.21704,7.5394,Yes,2018-09-25T14:25:14Z,Unknown,Primary Health Clinic,13294738-8b07-46a3-b96b-3f0fdc502cab,Maraban Guga Health Clinic,Functional,Primary,Public,KD0309,eHA_Polio,Shika,19003,Giwa,KD,Kaduna, , , , , , 
159,Point,sv_fc_healthcare_facilities.fid-65d4c550_169d91ba9ce_-57e0,Point,7.568844,11.196635,geometry_type,11.196635,7.568844,Yes,2018-09-25T14:25:18Z,Unknown,Primary Health Clinic,d8379fa0-ee62-448b-93e8-b62ae82421c5,Shika Primary Health Care,Functional,Primary,Public,KD0309,eHA_Polio,Shika,19003,Giwa,KD,Kaduna, , , , , , 
160,Point,sv_fc_healthcare_facilities.fid-65d4c550_169d91ba9ce_-57dc,Point,7.606046,11.175473,geometry_type,11.175473,7.606046,Yes,2018-09-25T14:08:11Z,Unknown,Teaching Hospital,3c7858ee-5e84-4176-96d4-1ecdad1958af,Ahmadu Bello University Teaching Hospital Shika,Functional,Primary,Public,KD0309,eHA_Polio,Shika,19003,Giwa,KD,Kaduna, , , , , , 
161,Point,sv_fc_healthcare_facilities.fid-65d4c550_169d91ba9ce_-57d9,Point,7.539125,11.193104,geometry_type,11.193104,7.539125,Yes,2018-09-25T14:25:30Z,Unknown,Health Post,932ef422-16fb-4c7e-9d08-8bb7812bba68,Shika Health Post,Functional,Primary,Public,KD0309,eHA_Polio,Shika,19003,Giwa,KD,Kaduna, , , , , , 
162,Point,sv_fc_healthcare_facilities.fid-65d4c550_169d91ba9ce_-57d1,Point,7.511474,11.132028,geometry_type,11.132028,7.511474,Yes,2018-09-25T14:25:20Z,Unknown,Primary Health Clinic,867fd6c6-e57a-4ebf-ae64-70389299f3c4,Danza Health Clinic,Functional,Primary,Public,KD0310,eHA_Polio,Wazata,19003,Giwa,KD,Kaduna, , , , , , 
163,Point,sv_fc_healthcare_facilities.fid-65d4c550_169d91ba9ce_-57cd,Point,7.492202,11.011062,geometry_type,11.011062,7.492202,Yes,2018-09-25T14:25:23Z,Unknown,Primary Health Clinic,728506d3-444e-4e7d-975a-dcbd0a9980d4,Wazata Primary Health Care,Functional,Primary,Public,KD0310,eHA_Polio,Wazata,19003,Giwa,KD,Kaduna, , , , , , 
164,Point,sv_fc_healthcare_facilities.fid-65d4c550_169d91ba9ce_-57c8,Point,7.452268,11.022322,geometry_type,11.022322,7.452268,Yes,2018-09-25T14:25:38Z,Unknown,Primary Health Clinic,46fe6509-dfa2-47c8-9b52-65fe97855cfa,Kadage Health Clinic,Functional,Primary,Public,KD0310,eHA_Polio,Wazata,19003,Giwa,KD,Kaduna, , , , , , 
165,Point,sv_fc_healthcare_facilities.fid-65d4c550_169d91ba9ce_-57c6,Point,7.559216,11.096826,geometry_type,11.096826,7.559216,Yes,2018-09-25T14:25:30Z,Unknown,Primary Health Clinic,327d86f7-8709-437a-866b-d478b6281fcf,Kundun Health Clinic,Functional,Primary,Public,KD0310,eHA_Polio,Wazata,19003,Giwa,KD,Kaduna, , , , , , 
166,Point,sv_fc_healthcare_facilities.fid-65d4c550_169d91ba9ce_-57c2,Point,7.591677,11.099037,geometry_type,11.099037,7.591677,Yes,2018-09-25T14:25:29Z,Unknown,Primary Health Center,48785612-f3a6-420f-9d36-81feaf014409,Rafin Yashi Health Center,Functional,Primary,Public,KD0310,eHA_Polio,Wazata,19003,Giwa,KD,Kaduna, , , , , , 
167,Point,sv_fc_healthcare_facilities.fid-65d4c550_169d91ba9ce_-57b6,Point,7.418794,11.202436,geometry_type,11.202436,7.418794,Yes,2018-09-25T14:25:36Z,Unknown,Health Post,8b7c6d8c-5c92-4881-a8ff-a469b0e595a8,Dokan Waziri A Health Post,Functional,Primary,Public,KD0311,eHA_Polio,Yakawada,19003,Giwa,KD,Kaduna, , , , , , 
168,Point,sv_fc_healthcare_facilities.fid-65d4c550_169d91ba9ce_-57b1,Point,7.327318,11.215854,geometry_type,11.215854,7.327318,Yes,2018-09-25T14:25:26Z,Unknown,Health Post,72e4a948-bda3-48bc-b14a-bcc5424c0532,Tashan Sharri Health Post,Functional,Primary,Public,KD0311,eHA_Polio,Yakawada,19003,Giwa,KD,Kaduna, , , , , , 
169,Point,sv_fc_healthcare_facilities.fid-65d4c550_169d91ba9ce_-57ad,Point,7.375224,11.204133,geometry_type,11.204133,7.375224,Yes,2018-09-25T14:25:35Z,Unknown,Primary Health Clinic,dc821418-07bd-49d3-9ae5-a1e8f980c7cd,Unguwar Gaga Health Clinic,Functional,Primary,Public,KD0311,eHA_Polio,Yakawada,19003,Giwa,KD,Kaduna, , , , , , 
170,Point,sv_fc_healthcare_facilities.fid-65d4c550_169d91ba9ce_-57aa,Point,7.331228,11.249509,geometry_type,11.249509,7.331228,Yes,2018-09-25T14:25:22Z,Unknown,Primary Health Clinic,2cc2d007-b5a5-4663-9afc-47ecadaddb16,Gadagau Primary Health Clinic,Functional,Primary,Public,KD0311,eHA_Polio,Yakawada,19003,Giwa,KD,Kaduna, , , , , , 
171,Point,sv_fc_healthcare_facilities.fid-65d4c550_169d91ba9ce_-57a2,Point,7.403739,10.589286,geometry_type,10.589286,7.403739,Unknown,2018-09-25T14:25:34Z,Unknown,Primary Health Clinic,fab389b1-4be8-48d1-88f2-7dc5b09d70da,Maimuna Clinic Maternity,Unknown,Primary,Public,KD0401,eHA_Polio,Afaka,19004,Igabi,KD,Kaduna, , , , , , 
172,Point,sv_fc_healthcare_facilities.fid-65d4c550_169d91ba9ce_-57a0,Point,7.293593,10.704476,geometry_type,10.704476,7.293593,Yes,2018-09-25T14:25:23Z,Unknown,Primary Health Center,232b7d05-3e6d-4ddf-9e5f-39eefb60f988,Ifira Primary Health Center,Functional,Primary,Public,KD0401,eHA_Polio,Afaka,19004,Igabi,KD,Kaduna, , , , , , 
173,Point,sv_fc_healthcare_facilities.fid-65d4c550_169d91ba9ce_-579d,Point,7.399986,10.593729,geometry_type,10.593729,7.399986,Unknown,2018-09-25T14:25:39Z,Unknown,Primary Health Clinic,2b7de336-3609-45e4-aa1a-9c9e70d317bb,Bethel Clinic And Maternity,Unknown,Primary,Public,KD0401,eHA_Polio,Afaka,19004,Igabi,KD,Kaduna, , , , , , 
174,Point,sv_fc_healthcare_facilities.fid-65d4c550_169d91ba9ce_-578a,Point,7.405128,10.592923,geometry_type,10.592923,7.405128,Unknown,2018-09-25T14:25:22Z,Unknown,Private Clinic,22885f07-cd49-4e1a-92e2-3d5101f66fef,Accor Clinic,Unknown,Primary,Public,KD0401,eHA_Polio,Afaka,19004,Igabi,KD,Kaduna, , , , , , 
175,Point,sv_fc_healthcare_facilities.fid-65d4c550_169d91ba9ce_-5786,Point,7.406974,10.591968,geometry_type,10.591968,7.406974,Unknown,2018-09-25T14:25:37Z,Unknown,Primary Health Center,f4a2b0bb-3884-4ebf-b54c-7807c53c909f,Annul Medical Center,Unknown,Primary,Public,KD0401,eHA_Polio,Afaka,19004,Igabi,KD,Kaduna, , , , , , 
176,Point,sv_fc_healthcare_facilities.fid-65d4c550_169d91ba9ce_-5782,Point,7.400773,10.586084,geometry_type,10.586084,7.400773,Unknown,2018-09-25T14:25:23Z,Unknown,Private Clinic,bfd550c1-e230-4636-8bce-0c3ff83982ea,Damu Clinic,Unknown,Primary,Public,KD0401,eHA_Polio,Afaka,19004,Igabi,KD,Kaduna, , , , , , 
177,Point,sv_fc_healthcare_facilities.fid-65d4c550_169d91ba9ce_-5780,Point,7.401106,10.594673,geometry_type,10.594673,7.401106,Unknown,2018-09-25T14:25:28Z,Unknown,Private Clinic,6829a534-bda9-4ddf-aa6f-e02f150b24b0,Rahman Hospital,Unknown,Primary,Public,KD0401,eHA_Polio,Afaka,19004,Igabi,KD,Kaduna, , , , , , 
178,Point,sv_fc_healthcare_facilities.fid-65d4c550_169d91ba9ce_-577b,Point,7.57559,10.83006,geometry_type,10.83006,7.57559,Unknown,2018-09-25T14:25:15Z,Unknown,Primary Health Clinic,06ed9b7b-f627-4092-85e5-da1a48d4bc49,Kim Maternity Hospital,Unknown,Primary,Public,KD0402,eHA_Polio,Birnin Yero,19004,Igabi,KD,Kaduna, , , , , , 
179,Point,sv_fc_healthcare_facilities.fid-65d4c550_169d91ba9ce_-5777,Point,7.569978,10.823523,geometry_type,10.823523,7.569978,Unknown,2018-09-25T14:25:32Z,Unknown,Primary Health Center,b8100e1e-404b-4753-ad72-fe888b82e00a,Comprehensive Health Center,Functional,Primary,Public,KD0402,eHA_Polio,Birnin Yero,19004,Igabi,KD,Kaduna, , , , , , 
180,Point,sv_fc_healthcare_facilities.fid-65d4c550_169d91ba9ce_-5773,Point,7.569954,10.823329,geometry_type,10.823329,7.569954,Yes,2018-09-25T14:39:55Z,Unknown,Primary Health Center,cbd75f70-8dd0-48b4-b22a-34d69442ba08,Jaji Compresive Health Center,Functional,Primary,Public,KD0402,eHA_Polio,Birnin Yero,19004,Igabi,KD,Kaduna, , , , , , 
181,Point,sv_fc_healthcare_facilities.fid-65d4c550_169d91ba9ce_-552f,Point,7.572401,10.881965,geometry_type,10.881965,7.572401,Yes,2018-09-25T14:25:42Z,Unknown,Primary Health Center,999840dd-cab5-4171-8cf7-501a4a917a15,Labar Health Center,Functional,Primary,Public,KD0402,eHA_Polio,Birnin Yero,19004,Igabi,KD,Kaduna, , , , , , 
182,Point,sv_fc_healthcare_facilities.fid-65d4c550_169d91ba9ce_-552b,Point,7.55716,10.80832,geometry_type,10.80832,7.55716,Unknown,2018-09-25T14:25:14Z,Unknown,Private Clinic,00299ff1-5c82-49f5-ab2b-e7c1fd1a3b0c,Genesis Hospital Ang Pete,Unknown,Tertiary,Private,KD0402,eHA_Polio,Birnin Yero,19004,Igabi,KD,Kaduna, , , , , , 
183,Point,sv_fc_healthcare_facilities.fid-65d4c550_169d91ba9ce_-5524,Point,7.6057,10.84099,geometry_type,10.84099,7.6057,Unknown,2018-09-25T14:25:15Z,Unknown,Primary Health Center,04e31d03-a5a8-471f-a414-151e1fb87ed0,Sanhu Primary Health Center,Unknown,Primary,Public,KD0402,eHA_Polio,Birnin Yero,19004,Igabi,KD,Kaduna, , , , , , 
184,Point,sv_fc_healthcare_facilities.fid-65d4c550_169d91ba9ce_-5521,Point,7.825738,10.693597,geometry_type,10.693597,7.825738,Unknown,2018-09-25T14:34:41Z,Unknown,Primary Health Center,924f0481-ef2c-49b3-81be-4cdd19aaed18,Dokan Yahaya Health Facility,Functional,Primary,Others,KD0403,NPHCDA,Fanshanu,19004,Igabi,KD,Kaduna, , , , , , 
185,Point,sv_fc_healthcare_facilities.fid-65d4c550_169d91ba9ce_-551d,Point,7.688318,10.743611,geometry_type,10.743611,7.688318,Unknown,2018-09-25T14:25:34Z,Unknown,Health Post,eea9b697-a6df-4c8c-a65e-e326a9363afc,Amana Madaci Health Post,Functional,Primary,Public,KD0403,eHA_Polio,Fanshanu,19004,Igabi,KD,Kaduna, , , , , , 
186,Point,sv_fc_healthcare_facilities.fid-65d4c550_169d91ba9ce_-5519,Point,7.74867,10.71271,geometry_type,10.71271,7.74867,Unknown,2018-09-25T14:25:14Z,Unknown,Primary Health Clinic,65c05399-1721-4529-953c-e1fd5a76c98a,Gadama Clinic,Unknown,Primary,Public,KD0403,eHA_Polio,Fanshanu,19004,Igabi,KD,Kaduna, , , , , , 
187,Point,sv_fc_healthcare_facilities.fid-65d4c550_169d91ba9ce_-5514,Point,7.67311,10.76913,geometry_type,10.76913,7.67311,Unknown,2018-09-25T14:25:15Z,Unknown,Private Clinic,c6805002-ff07-4a24-99bf-4b9f52ee7cc2,Yasram Memorial Hospital,Unknown,Tertiary,Private,KD0403,eHA_Polio,Fanshanu,19004,Igabi,KD,Kaduna, , , , , , 
188,Point,sv_fc_healthcare_facilities.fid-65d4c550_169d91ba9ce_-5510,Point,7.825037,10.688617,geometry_type,10.688617,7.825037,Yes,2018-09-25T14:25:18Z,Unknown,Health Post,1425e655-02d1-4456-a60d-6277c43c7410,Fanturawa Health Post,Functional,Primary,Public,KD0403,eHA_Polio,Fanshanu,19004,Igabi,KD,Kaduna, , , , , , 
189,Point,sv_fc_healthcare_facilities.fid-65d4c550_169d91ba9ce_-5507,Point,7.75003,10.70563,geometry_type,10.70563,7.75003,Unknown,2018-09-25T14:25:15Z,Unknown,Private Clinic,c1e13a4b-4d24-410b-b69a-a880358a7507,Marhaba Nursing,Unknown,Tertiary,Private,KD0403,eHA_Polio,Fanshanu,19004,Igabi,KD,Kaduna, , , , , , 
190,Point,sv_fc_healthcare_facilities.fid-65d4c550_169d91ba9ce_-5503,Point,7.634956,10.643641,geometry_type,10.643641,7.634956,Unknown,2018-09-25T14:25:30Z,Unknown,Primary Health Clinic,2c45b6a0-2ad6-43ab-99b1-734ab2e8426d,Maje Health Care,Functional,Primary,Public,KD0404,eHA_Polio,Gwaraji,19004,Igabi,KD,Kaduna, , , , , , 
191,Point,sv_fc_healthcare_facilities.fid-65d4c550_169d91ba9ce_-54ff,Point,7.72624,10.556727,geometry_type,10.556727,7.72624,Unknown,2018-09-25T14:10:37Z,Unknown,Primary Health Clinic,895ddb79-e4b2-4841-8b39-6fff166450f5,Primary Health Clinic Gwaraji,Unknown,Primary,Others,KD0404,NPHCDA,Gwaraji,19004,Igabi,KD,Kaduna, , , , , , 
192,Point,sv_fc_healthcare_facilities.fid-65d4c550_169d91ba9ce_-54f5,Point,7.646375,10.613582,geometry_type,10.613582,7.646375,Yes,2018-09-25T14:25:16Z,Unknown,Primary Health Clinic,b3c939e3-d1a8-484d-8675-4b7248dbeb1b,Kaban Primary Health Clinic,Functional,Primary,Public,KD0404,eHA_Polio,Gwaraji,19004,Igabi,KD,Kaduna, , , , , , 
193,Point,sv_fc_healthcare_facilities.fid-65d4c550_169d91ba9ce_-54ec,Point,7.6088,10.633511,geometry_type,10.633511,7.6088,Yes,2018-09-25T14:25:16Z,Unknown,Primary Health Clinic,ae2fb962-2474-439d-83e9-bba4dc00b7ba,Burkonu Primary Health Clinic,Functional,Primary,Public,KD0404,eHA_Polio,Gwaraji,19004,Igabi,KD,Kaduna, , , , , , 
194,Point,sv_fc_healthcare_facilities.fid-65d4c550_169d91ba9ce_-54e4,Point,7.793407,10.887476,geometry_type,10.887476,7.793407,Yes,2018-09-25T14:25:26Z,Unknown,Primary Health Center,0fa9de49-e178-40e2-91ef-2a92155975e4,Sheka Health Center,Functional,Primary,Public,KD0405,eHA_Polio,Igabi,19004,Igabi,KD,Kaduna, , , , , , 
195,Point,sv_fc_healthcare_facilities.fid-65d4c550_169d91ba9ce_-54e0,Point,7.743124,10.883296,geometry_type,10.883296,7.743124,Unknown,2018-09-25T14:25:30Z,Unknown,Primary Health Center,9bc7d1b2-f127-46b5-b902-10db76a9ce3c,Illa Health Center,Functional,Primary,Public,KD0405,eHA_Polio,Igabi,19004,Igabi,KD,Kaduna, , , , , , 
196,Point,sv_fc_healthcare_facilities.fid-65d4c550_169d91ba9ce_-54d8,Point,7.421506,10.969324,geometry_type,10.969324,7.421506,Unknown,2018-09-25T14:11:00Z,Unknown,Health Post,2a23e43b-a422-4c46-9b24-5c3495ae0071,Kerawa Health Post,Functional,Primary,Public,KD0406,eHA_Polio,Kerawa,19004,Igabi,KD,Kaduna, , , , , , 
197,Point,sv_fc_healthcare_facilities.fid-65d4c550_169d91ba9ce_-54d5,Point,7.498217,10.958267,geometry_type,10.958267,7.498217,Yes,2018-09-25T14:25:35Z,Unknown,Health Post,26cfb22c-f07d-41ad-a1fd-7599569f4e38,Bina Health Post,Functional,Primary,Public,KD0406,eHA_Polio,Kerawa,19004,Igabi,KD,Kaduna, , , , , , 
198,Point,sv_fc_healthcare_facilities.fid-65d4c550_169d91ba9ce_-54d0,Point,7.59579,10.98412,geometry_type,10.98412,7.59579,Yes,2018-09-25T14:25:15Z,Unknown,Primary Health Clinic,b1b3c62f-ed89-4f9d-a21d-33eeaf7a762d,Tudun Wadan Danmama Health Clinic,Functional,Primary,Public,KD0406,eHA_Polio,Kerawa,19004,Igabi,KD,Kaduna, , , , , , 
199,Point,sv_fc_healthcare_facilities.fid-65d4c550_169d91ba9ce_-54ca,Point,7.602863,10.941942,geometry_type,10.941942,7.602863,Yes,2018-09-25T14:25:19Z,Unknown,Health Post,0f62025d-dbad-4cd8-a2b1-94a9729a7dec,Tumbau Health Post,Functional,Primary,Public,KD0406,eHA_Polio,Kerawa,19004,Igabi,KD,Kaduna, , , , , , 
200,Point,sv_fc_healthcare_facilities.fid-65d4c550_169d91ba9ce_-54c1,Point,7.545933,10.95135,geometry_type,10.95135,7.545933,Yes,2018-09-25T14:25:23Z,Unknown,Primary Health Clinic,b0aec992-8c8e-45cf-9fc9-d5eb6428cc29,Kerawa Primary Health Care,Functional,Primary,Public,KD0406,eHA_Polio,Kerawa,19004,Igabi,KD,Kaduna, , , , , , 
201,Point,sv_fc_healthcare_facilities.fid-65d4c550_169d91ba9ce_-54bd,Point,7.576596,11.000508,geometry_type,11.000508,7.576596,Yes,2018-09-25T14:25:34Z,Unknown,Primary Health Clinic,29409806-da34-4f08-8881-e5d74e38f7fd,Sabon Birnin Dosa Health Clinic,Functional,Primary,Public,KD0406,eHA_Polio,Kerawa,19004,Igabi,KD,Kaduna, , , , , , 
202,Point,sv_fc_healthcare_facilities.fid-65d4c550_169d91ba9ce_-54b9,Point,7.51228,10.69787,geometry_type,10.69787,7.51228,Unknown,2018-09-25T14:25:16Z,Unknown,Primary Health Clinic,9c67a7bc-db94-47b1-baf3-f640f6854f3e,Hope Clinic Maternity,Unknown,Primary,Public,KD0407,eHA_Polio,Kwarau,19004,Igabi,KD,Kaduna, , , , , , 
203,Point,sv_fc_healthcare_facilities.fid-65d4c550_169d91ba9ce_-54b6,Point,7.493951,10.678698,geometry_type,10.678698,7.493951,Yes,2018-09-25T14:25:29Z,Unknown,Primary Health Clinic,2588b480-1274-4a4c-aae7-521a3c19a1fb,Dankande Health Clinic,Functional,Primary,Public,KD0407,eHA_Polio,Kwarau,19004,Igabi,KD,Kaduna, , , , , , 
204,Point,sv_fc_healthcare_facilities.fid-65d4c550_169d91ba9ce_-54b2,Point,7.51186,10.6946,geometry_type,10.6946,7.51186,Unknown,2018-09-25T14:25:16Z,Unknown,Primary Health Clinic,e875292a-b3ee-4b31-bcce-84ae6d3b0ce9,Al Amin Nursing And Maternity,Unknown,Primary,Public,KD0407,eHA_Polio,Kwarau,19004,Igabi,KD,Kaduna, , , , , , 
205,Point,sv_fc_healthcare_facilities.fid-65d4c550_169d91ba9ce_-54ae,Point,7.518225,10.767972,geometry_type,10.767972,7.518225,Yes,2018-09-25T14:25:18Z,Unknown,Primary Health Clinic,980a7df6-4048-44bc-9444-967d4a53f34f,Kwarau Tasha Health Clinic,Functional,Primary,Public,KD0407,eHA_Polio,Kwarau,19004,Igabi,KD,Kaduna, , , , , , 
206,Point,sv_fc_healthcare_facilities.fid-65d4c550_169d91ba9ce_-54a6,Point,7.582911,10.626116,geometry_type,10.626116,7.582911,Yes,2018-09-25T14:25:23Z,Unknown,Primary Health Center,0bbfc988-74d4-4297-ad86-e7c64bdcb3f8,Ruhogi Primary Health Center,Functional,Primary,Public,KD0407,eHA_Polio,Kwarau,19004,Igabi,KD,Kaduna, , , , , , 
207,Point,sv_fc_healthcare_facilities.fid-65d4c550_169d91ba9ce_-54a1,Point,7.594727,10.731216,geometry_type,10.731216,7.594727,Yes,2018-09-25T14:25:23Z,Unknown,Health Post,0d6fa95f-eb75-4aa7-8464-344a99dab523,Kangimi Health Post,Functional,Primary,Public,KD0407,eHA_Polio,Kwarau,19004,Igabi,KD,Kaduna, , , , , , 
208,Point,sv_fc_healthcare_facilities.fid-65d4c550_169d91ba9ce_-549c,Point,7.54625,10.61359,geometry_type,10.61359,7.54625,Unknown,2018-09-25T14:25:14Z,Unknown,Primary Health Clinic,d8766811-3ffe-4f1d-b519-a8b9f144d316,Kaban Primary Health Care,Unknown,Primary,Public,KD0407,eHA_Polio,Kwarau,19004,Igabi,KD,Kaduna, , , , , , 
209,Point,sv_fc_healthcare_facilities.fid-65d4c550_169d91ba9ce_-548c,Point,7.614565,10.598702,geometry_type,10.598702,7.614565,Unknown,2018-09-25T14:25:39Z,Unknown,Health Post,a134bbd8-d71d-49d3-82ff-7b2ff8b2b5e6,Likora Primary Health Post,Functional,Primary,Public,KD0408,eHA_Polio,Rigachikun,19004,Igabi,KD,Kaduna, , , , , , 
210,Point,sv_fc_healthcare_facilities.fid-65d4c550_169d91ba9ce_-5489,Point,7.505593,10.579848,geometry_type,10.579848,7.505593,Yes,2018-09-25T14:25:18Z,Unknown,Health Post,c336d9b7-ef48-4d56-8c17-19f30744f154,Kurmin Kadina Health Post,Functional,Primary,Public,KD0408,eHA_Polio,Rigachikun,19004,Igabi,KD,Kaduna, , , , , , 
211,Point,sv_fc_healthcare_facilities.fid-65d4c550_169d91ba9ce_-5484,Point,7.513058,10.61206,geometry_type,10.61206,7.513058,Yes,2018-09-25T14:25:31Z,Unknown,Primary Health Center,dc72fc71-0588-4959-b7e3-257029161cf7,Zaure Primary Health Center,Functional,Primary,Public,KD0408,eHA_Polio,Rigachikun,19004,Igabi,KD,Kaduna, , , , , , 
212,Point,sv_fc_healthcare_facilities.fid-65d4c550_169d91ba9ce_-547c,Point,7.471797,10.583874,geometry_type,10.583874,7.471797,Unknown,2018-09-25T14:25:25Z,Unknown,Primary Health Clinic,a28003ba-f4e6-4885-884e-881b43963de9,Rafin Guza Health Clinic,Functional,Primary,Public,KD0408,eHA_Polio,Rigachikun,19004,Igabi,KD,Kaduna, , , , , , 
213,Point,sv_fc_healthcare_facilities.fid-65d4c550_169d91ba9ce_-5476,Point,7.466506,10.620689,geometry_type,10.620689,7.466506,Unknown,2018-09-25T14:25:21Z,Unknown,Primary Health Clinic,9d0ad29d-bd91-445e-ad07-eccd8caecb9b,Mai Anguwa Tanko Clinic,Functional,Primary,Public,KD0408,eHA_Polio,Rigachikun,19004,Igabi,KD,Kaduna, , , , , , 
214,Point,sv_fc_healthcare_facilities.fid-65d4c550_169d91ba9ce_-5471,Point,7.472511,10.641734,geometry_type,10.641734,7.472511,Unknown,2018-09-25T14:25:40Z,Unknown,Primary Health Center,78212471-a4ed-4e14-889e-81ffaf3c9951,R Chukum Primary Health Center,Unknown,Primary,Public,KD0408,eHA_Polio,Rigachikun,19004,Igabi,KD,Kaduna, , , , , , 
215,Point,sv_fc_healthcare_facilities.fid-65d4c550_169d91ba9ce_-546b,Point,7.373124,10.53561,geometry_type,10.53561,7.373124,Unknown,2018-09-25T14:25:19Z,Unknown,Primary Health Clinic,02672626-a6df-43cf-9331-78d7847f0a9d,Muazatul Maternity Health Center,Unknown,Primary,Public,KD0409,eHA_Polio,Rigasa,19004,Igabi,KD,Kaduna, , , , , , 
216,Point,sv_fc_healthcare_facilities.fid-65d4c550_169d91ba9ce_-5467,Point,7.255347,10.531325,geometry_type,10.531325,7.255347,Yes,2018-09-25T14:25:15Z,Unknown,Primary Health Center,01f177a2-442c-4e67-b1d0-233be5edaed6,Mallamawa Health Center,Functional,Primary,Public,KD0409,eHA_Polio,Rigasa,19004,Igabi,KD,Kaduna, , , , , , 
217,Point,sv_fc_healthcare_facilities.fid-65d4c550_169d91ba9ce_-5463,Point,7.37095,10.530453,geometry_type,10.530453,7.37095,Unknown,2018-09-25T14:25:39Z,Unknown,Primary Health Clinic,3299f8a3-07d9-4f39-8731-363b953554e5,Sauki Nursing Home And Maternity,Unknown,Primary,Public,KD0409,eHA_Polio,Rigasa,19004,Igabi,KD,Kaduna, , , , , , 
218,Point,sv_fc_healthcare_facilities.fid-65d4c550_169d91ba9ce_-545e,Point,7.373939,10.545488,geometry_type,10.545488,7.373939,Unknown,2018-09-25T14:10:17Z,Unknown,Primary Health Clinic,b5caf6e0-a758-475f-826a-184a097dea93,Taro Taro Health Clinic,Unknown,Primary,State Ministry Of Health,KD0409,eHA_Polio,Rigasa,19004,Igabi,KD,Kaduna, , , , , , 
219,Point,sv_fc_healthcare_facilities.fid-65d4c550_169d91ba9ce_-545a,Point,7.390079,10.525084,geometry_type,10.525084,7.390079,Yes,2018-09-25T14:25:40Z,Unknown,Unknown,a7e646eb-73c7-4704-a6f1-406296ff387a,Aisha Alansariya,Unknown,Primary,Public,KD0409,eHA_Polio,Rigasa,19004,Igabi,KD,Kaduna, , , , , , 
220,Point,sv_fc_healthcare_facilities.fid-65d4c550_169d91ba9ce_-5456,Point,7.403256,10.541596,geometry_type,10.541596,7.403256,Yes,2018-09-25T14:25:34Z,Unknown,Primary Health Center,009fe8e1-8484-43ee-b6a4-39a7b2c8feac,Hayim Dan Mani Primary Health Center,Functional,Primary,Public,KD0409,eHA_Polio,Rigasa,19004,Igabi,KD,Kaduna, , , , , , 
221,Point,sv_fc_healthcare_facilities.fid-65d4c550_169d91ba9ce_-544e,Point,7.371197,10.502433,geometry_type,10.502433,7.371197,Yes,2018-09-25T14:25:21Z,Unknown,Primary Health Clinic,5c3d18bb-c286-46fe-98ed-70514871fa2b,Nariya Health Clinic,Functional,Primary,Public,KD0409,eHA_Polio,Rigasa,19004,Igabi,KD,Kaduna, , , , , , 
222,Point,sv_fc_healthcare_facilities.fid-65d4c550_169d91ba9ce_-544a,Point,7.382051,10.530192,geometry_type,10.530192,7.382051,Unknown,2018-09-25T14:25:34Z,Unknown,Primary Health Clinic,dff5cc23-4371-4fe2-af84-c46b45df45c2,Central Hospital And Maternity,Unknown,Primary,Public,KD0409,eHA_Polio,Rigasa,19004,Igabi,KD,Kaduna, , , , , , 
223,Point,sv_fc_healthcare_facilities.fid-65d4c550_169d91ba9ce_-5446,Point,7.394384,10.534076,geometry_type,10.534076,7.394384,Yes,2018-09-25T14:25:31Z,Unknown,Primary Health Center,3f6654e8-fe15-479e-bbf5-aeb1394c53bd,Taro Taro Primary Health Center,Functional,Primary,Public,KD0409,eHA_Polio,Rigasa,19004,Igabi,KD,Kaduna, , , , , , 
224,Point,sv_fc_healthcare_facilities.fid-65d4c550_169d91ba9ce_-5442,Point,7.377963,10.532842,geometry_type,10.532842,7.377963,Unknown,2018-09-25T14:25:35Z,Unknown,Laboratory,6d201194-1f72-48f6-9c1b-023168a65528,Zaitu Diagnostic,Unknown,Primary,Public,KD0409,eHA_Polio,Rigasa,19004,Igabi,KD,Kaduna, , , , , , 
225,Point,sv_fc_healthcare_facilities.fid-65d4c550_169d91ba9ce_-543a,Point,7.386178,10.528324,geometry_type,10.528324,7.386178,Yes,2018-09-25T14:25:32Z,Unknown,Private Clinic,62cfd365-3c89-4ec0-aa0d-3629f4a723e5,Halal Nursing Home,Unknown,Primary,Public,KD0409,eHA_Polio,Rigasa,19004,Igabi,KD,Kaduna, , , , , , 
226,Point,sv_fc_healthcare_facilities.fid-65d4c550_169d91ba9ce_-5436,Point,7.37587,10.521974,geometry_type,10.521974,7.37587,Unknown,2018-09-25T14:25:26Z,Unknown,Primary Health Center,210ec05b-421f-424e-a56a-ba89eb7ef3fa,Igabi Primary Health Center,Functional,Primary,Public,KD0409,eHA_Polio,Rigasa,19004,Igabi,KD,Kaduna, , , , , , 
227,Point,sv_fc_healthcare_facilities.fid-65d4c550_169d91ba9ce_-5432,Point,7.387507,10.527996,geometry_type,10.527996,7.387507,Yes,2018-09-25T14:25:39Z,Unknown,Health Post,abb66fdd-cc32-4cf5-b76f-4ba68efecf87,Nasiha Clinic,Unknown,Primary,Public,KD0409,eHA_Polio,Rigasa,19004,Igabi,KD,Kaduna, , , , , , 
228,Point,sv_fc_healthcare_facilities.fid-65d4c550_169d91ba9ce_-542e,Point,7.307767,10.811437,geometry_type,10.811437,7.307767,Unknown,2018-09-25T14:25:41Z,Unknown,Primary Health Clinic,d762ceaf-47c4-4658-9e6b-7d070b800620,Annuri Hospital And Maternity,Unknown,Primary,Public,KD0410,eHA_Polio,Sabon Birnin,19004,Igabi,KD,Kaduna, , , , , , 
229,Point,sv_fc_healthcare_facilities.fid-65d4c550_169d91ba9ce_-5425,Point,7.443488,10.775499,geometry_type,10.775499,7.443488,Yes,2018-09-25T14:25:37Z,Unknown,Primary Health Clinic,bca35968-a175-4a91-87b0-265017533ccd,Tami Primary Health Care,Functional,Primary,Public,KD0410,eHA_Polio,Sabon Birnin,19004,Igabi,KD,Kaduna, , , , , , 
230,Point,sv_fc_healthcare_facilities.fid-65d4c550_169d91ba9ce_-5421,Point,7.52608,10.84268,geometry_type,10.84268,7.52608,Yes,2018-09-25T14:25:41Z,Unknown,Primary Health Center,87219363-32c8-4cda-b9e7-33a56d268f50,Wusono Health Center,Functional,Primary,Public,KD0410,eHA_Polio,Sabon Birnin,19004,Igabi,KD,Kaduna, , , , , , 
231,Point,sv_fc_healthcare_facilities.fid-65d4c550_169d91ba9ce_-541d,Point,7.482147,10.720481,geometry_type,10.720481,7.482147,Unknown,2018-09-25T14:25:27Z,Unknown,Primary Health Clinic,3afec06b-3723-4162-9f1e-2990922e3a97,Rinji Primary Health Care,Functional,Primary,Public,KD0410,eHA_Polio,Sabon Birnin,19004,Igabi,KD,Kaduna, , , , , , 
232,Point,sv_fc_healthcare_facilities.fid-65d4c550_169d91ba9ce_-5419,Point,7.54922,10.82594,geometry_type,10.82594,7.54922,Unknown,2018-09-25T14:25:15Z,Unknown,Primary Health Clinic,55b8a1fc-3e82-4a35-b807-2a76e492c069,N'amu Clinic Jaji,Unknown,Primary,Public,KD0410,eHA_Polio,Sabon Birnin,19004,Igabi,KD,Kaduna, , , , , , 
233,Point,sv_fc_healthcare_facilities.fid-65d4c550_169d91ba9ce_-5414,Point,7.659841,10.873873,geometry_type,10.873873,7.659841,Yes,2018-09-25T14:25:19Z,Unknown,Primary Health Center,0fba7637-ce62-4b88-82b4-94078381a8e8,Bargu Health Facility,Functional,Primary,Public,KD0411,eHA_Polio,Turunku,19004,Igabi,KD,Kaduna, , , , , , 
234,Point,sv_fc_healthcare_facilities.fid-65d4c550_169d91ba9ce_-5411,Point,7.710463,10.803416,geometry_type,10.803416,7.710463,Yes,2018-09-25T14:25:41Z,Unknown,Primary Health Center,99783ed9-e6c2-4445-a4f4-f5989812771d,Turunku Rural Hospital,Functional,Primary,Public,KD0411,eHA_Polio,Turunku,19004,Igabi,KD,Kaduna, , , , , , 
235,Point,sv_fc_healthcare_facilities.fid-65d4c550_169d91ba9ce_-5408,Point,7.63338,10.87515,geometry_type,10.87515,7.63338,Unknown,2018-09-25T14:25:14Z,Unknown,Primary Health Clinic,fa6efde1-5003-4137-bb20-330d6a6c5d2e,Karakwai Primary Health Care,Unknown,Primary,Public,KD0411,eHA_Polio,Turunku,19004,Igabi,KD,Kaduna, , , , , , 
236,Point,sv_fc_healthcare_facilities.fid-65d4c550_169d91ba9ce_-5403,Point,7.643507,10.80276,geometry_type,10.80276,7.643507,Yes,2018-09-25T14:25:21Z,Unknown,Primary Health Clinic,f7a32493-287c-49ed-b15f-a0a4715ef859,Kankurmi Primary Health Care,Functional,Primary,Public,KD0411,eHA_Polio,Turunku,19004,Igabi,KD,Kaduna, , , , , , 
237,Point,sv_fc_healthcare_facilities.fid-65d4c550_169d91ba9ce_-5400,Point,7.626997,10.872845,geometry_type,10.872845,7.626997,Unknown,2018-09-25T14:25:22Z,Unknown,Primary Health Clinic,1a89faf3-e4a7-439f-a662-fa8090a322d5,Farakwai Health Clinic,Functional,Primary,Public,KD0411,eHA_Polio,Turunku,19004,Igabi,KD,Kaduna, , , , , , 
238,Point,sv_fc_healthcare_facilities.fid-65d4c550_169d91ba9ce_-53fa,Point,7.665448,10.9196,geometry_type,10.9196,7.665448,Unknown,2018-09-25T14:25:42Z,Unknown,Primary Health Clinic,5f5d3f05-2dc7-43a7-9c74-e30c9cdd5b0f,Anguwan Malamai Health Clinic,Unknown,Primary,Public,KD0412,eHA_Polio,Zangon Aya,19004,Igabi,KD,Kaduna, , , , , , 
239,Point,sv_fc_healthcare_facilities.fid-65d4c550_169d91ba9ce_-53f7,Point,7.696821,10.972195,geometry_type,10.972195,7.696821,Yes,2018-09-25T14:25:40Z,Unknown,Primary Health Clinic,d4aa9598-40f8-48e8-a0f8-f4d77b967c81,Tudun Wadan Mangi Primary Health Care,Functional,Primary,Public,KD0412,eHA_Polio,Zangon Aya,19004,Igabi,KD,Kaduna, , , , , , 
240,Point,sv_fc_healthcare_facilities.fid-65d4c550_169d91ba9ce_-53f3,Point,7.665617,10.919494,geometry_type,10.919494,7.665617,Unknown,2018-09-25T14:39:55Z,Unknown,Primary Health Clinic,2cb351a4-b4b9-41e1-92c8-cf8d17978006,Unguwan Malamai Primary Health Care,Functional,Primary,Public,KD0412,eHA_Polio,Zangon Aya,19004,Igabi,KD,Kaduna, , , , , , 
241,Point,sv_fc_healthcare_facilities.fid-65d4c550_169d91ba9ce_-53ee,Point,7.709309,10.970365,geometry_type,10.970365,7.709309,Yes,2018-09-25T14:25:28Z,Unknown,Primary Health Clinic,2efc6d6e-73c3-42a7-bb12-0cac192216c1,Audi Primary Health Care,Functional,Primary,Public,KD0412,eHA_Polio,Zangon Aya,19004,Igabi,KD,Kaduna, , , , , , 
242,Point,sv_fc_healthcare_facilities.fid-65d4c550_169d91ba9ce_-53ea,Point,7.648678,10.905724,geometry_type,10.905724,7.648678,Unknown,2018-09-25T14:25:24Z,Unknown,Primary Health Clinic,1d94cb08-5033-46ae-98dc-3a2bd9a2dc36,Kamfanin Zango Primary Health Care,Functional,Primary,Public,KD0412,eHA_Polio,Zangon Aya,19004,Igabi,KD,Kaduna, , , , , , 
243,Point,sv_fc_healthcare_facilities.fid-65d4c550_169d91ba9ce_-53e6,Point,7.647752,10.923691,geometry_type,10.923691,7.647752,Yes,2018-09-25T14:25:27Z,Unknown,Primary Health Clinic,4704a220-14bf-4f06-8406-aad8d9c12c07,Lamban Zango Primary Health Care,Functional,Primary,Public,KD0412,eHA_Polio,Zangon Aya,19004,Igabi,KD,Kaduna, , , , , , 
244,Point,sv_fc_healthcare_facilities.fid-65d4c550_169d91ba9ce_-53e3,Point,7.757737,10.958681,geometry_type,10.958681,7.757737,Yes,2018-09-25T14:25:26Z,Unknown,Primary Health Clinic,68998957-2b1c-4647-beaf-fd719f310092,Iruga Primary Health Care,Functional,Primary,Public,KD0412,eHA_Polio,Zangon Aya,19004,Igabi,KD,Kaduna, , , , , , 
245,Point,sv_fc_healthcare_facilities.fid-65d4c550_169d91ba9ce_-53df,Point,7.76655,10.92656,geometry_type,10.92656,7.76655,Unknown,2018-09-25T14:25:33Z,Unknown,Primary Health Clinic,7a634d22-c345-4622-9051-261696dd67c6,Baushe Primary Health Care,Functional,Primary,Public,KD0412,eHA_Polio,Zangon Aya,19004,Igabi,KD,Kaduna, , , , , , 
246,Point,sv_fc_healthcare_facilities.fid-65d4c550_169d91ba9ce_-53d5,Point,7.675305,10.980429,geometry_type,10.980429,7.675305,Yes,2018-09-25T14:25:23Z,Unknown,Primary Health Clinic,00396e2e-3aa0-4516-ad03-e0f2b7c84739,Mangi Primary Health Care,Functional,Primary,Public,KD0412,eHA_Polio,Zangon Aya,19004,Igabi,KD,Kaduna, , , , , , 
247,Point,sv_fc_healthcare_facilities.fid-65d4c550_169d91ba9ce_-53d0,Point,7.664983,10.936772,geometry_type,10.936772,7.664983,Unknown,2018-09-25T14:25:35Z,Unknown,Primary Health Clinic,38a09eb9-b402-47a8-8096-3a13ac572196,Kigo Primary Health Care,Functional,Primary,Public,KD0412,eHA_Polio,Zangon Aya,19004,Igabi,KD,Kaduna, , , , , , 
248,Point,sv_fc_healthcare_facilities.fid-65d4c550_169d91ba9ce_-53cd,Point,8.008461,11.40607,geometry_type,11.40607,8.008461,Unknown,2018-09-25T14:25:46Z,Unknown,Primary Health Clinic,28541575-b263-4322-8273-9c9dfa1a24c1,Zainab Nursing Home And Maternity,Unknown,Primary,Public,KD0501,eHA_Polio,Auchan,19005,Ikara,KD,Kaduna, , , , , , 
249,Point,sv_fc_healthcare_facilities.fid-65d4c550_169d91ba9ce_-53c8,Point,8.011059,11.408426,geometry_type,11.408426,8.011059,Yes,2018-09-25T14:25:46Z,Unknown,Primary Health Clinic,f239c5ac-08c7-4ccc-9183-c28441b7df72,Auchan Primary Health Care,Functional,Primary,Public,KD0501,eHA_Polio,Auchan,19005,Ikara,KD,Kaduna, , , , , , 
250,Point,sv_fc_healthcare_facilities.fid-65d4c550_169d91ba9ce_-53c5,Point,8.038963,11.410948,geometry_type,11.410948,8.038963,Yes,2018-09-25T14:25:44Z,Unknown,Primary Health Clinic,60b1fd9d-1979-4173-b67c-4a32da28e8e9,Kwakwa Health Clinic,Functional,Primary,Public,KD0501,eHA_Polio,Auchan,19005,Ikara,KD,Kaduna, , , , , , 
251,Point,sv_fc_healthcare_facilities.fid-65d4c550_169d91ba9ce_-53c0,Point,8.028245,11.442959,geometry_type,11.442959,8.028245,Yes,2018-09-25T14:25:45Z,Unknown,Primary Health Clinic,beff71ec-f20d-40f1-aac4-46e1aa9c5c8c,Allah Gaba Health Clinic,Functional,Primary,Public,KD0501,eHA_Polio,Auchan,19005,Ikara,KD,Kaduna, , , , , , 
252,Point,sv_fc_healthcare_facilities.fid-65d4c550_169d91ba9ce_-53bc,Point,8.044643,11.387634,geometry_type,11.387634,8.044643,Unknown,2018-09-25T14:25:44Z,Unknown,Primary Health Clinic,b66fe631-614f-421d-8301-9081460b7e7c,Unguwar Sha Aibu Health Clinic,Functional,Primary,Public,KD0501,eHA_Polio,Auchan,19005,Ikara,KD,Kaduna, , , , , , 
253,Point,sv_fc_healthcare_facilities.fid-65d4c550_169d91ba9ce_-53b8,Point,8.018017,11.412625,geometry_type,11.412625,8.018017,Yes,2018-09-25T14:25:54Z,Unknown,Primary Health Clinic,7f5006c4-4d8a-4401-8151-f8c216ca2976,Sabon Garin Auchan Health Clinic,Functional,Primary,Public,KD0501,eHA_Polio,Auchan,19005,Ikara,KD,Kaduna, , , , , , 
254,Point,sv_fc_healthcare_facilities.fid-65d4c550_169d91ba9ce_-53b5,Point,8.230136,11.203762,geometry_type,11.203762,8.230136,Unknown,2018-09-25T14:25:45Z,Unknown,Primary Health Center,a001ee23-e631-420c-98b8-939c35cb352d,Anguwan Liman Health Center,Unknown,Primary,Others,KD0502,NPHCDA,Ikara,19005,Ikara,KD,Kaduna, , , , , , 
255,Point,sv_fc_healthcare_facilities.fid-65d4c550_169d91ba9ce_-53b2,Point,8.164312,11.17345,geometry_type,11.17345,8.164312,Yes,2018-09-25T14:25:46Z,Unknown,Health Post,1f52e3ed-b17a-46ed-a7ca-57f815c03eee,Kankanki Health Post,Functional,Primary,Public,KD0502,eHA_Polio,Ikara,19005,Ikara,KD,Kaduna, , , , , , 
256,Point,sv_fc_healthcare_facilities.fid-65d4c550_169d91ba9ce_-53ab,Point,8.225888,11.174513,geometry_type,11.174513,8.225888,Yes,2018-09-25T14:25:54Z,Unknown,Primary Health Clinic,6b9d5a0c-bcde-4cbc-9e5a-dadfff44d58e,Na Yargora Nursing And Maternity Ikaraau,Unknown,Primary,Public,KD0502,eHA_Polio,Ikara,19005,Ikara,KD,Kaduna, , , , , , 
257,Point,sv_fc_healthcare_facilities.fid-65d4c550_169d91ba9ce_-53a7,Point,8.222579,11.169734,geometry_type,11.169734,8.222579,Unknown,2018-09-25T14:25:48Z,Unknown,Primary Health Clinic,bef22f26-366a-4a68-926f-04749d05f861,Shukura Clinic And Maternity,Unknown,Primary,State Primary HealthCare Development Agency,KD0502,eHA_Polio,Ikara,19005,Ikara,KD,Kaduna, , , , , , 
258,Point,sv_fc_healthcare_facilities.fid-65d4c550_169d91ba9ce_-53a1,Point,8.20933,11.175467,geometry_type,11.175467,8.20933,Unknown,2018-09-25T14:25:52Z,Unknown,Primary Health Clinic,a52bd2bf-f949-47cf-bf3f-97740cbcb9c3,Sauki Na Allah Clinic,Unknown,Primary,Public,KD0502,eHA_Polio,Ikara,19005,Ikara,KD,Kaduna, , , , , , 
259,Point,sv_fc_healthcare_facilities.fid-65d4c550_169d91ba9ce_-539d,Point,8.20609,11.180761,geometry_type,11.180761,8.20609,Unknown,2018-09-25T14:25:45Z,Unknown,Private Clinic,1c5d90c4-e13c-4677-946b-11635892e475,Lamari Nursing And Mat Sarki Zaki,Unknown,Primary,Public,KD0502,eHA_Polio,Ikara,19005,Ikara,KD,Kaduna, , , , , , 
260,Point,sv_fc_healthcare_facilities.fid-65d4c550_169d91ba9ce_-5394,Point,8.192531,11.147824,geometry_type,11.147824,8.192531,Unknown,2018-09-25T14:25:49Z,Unknown,Primary Health Center,aaa87e4f-7ab4-4746-ab82-3df57567086e,Anguwar Alhaji Dogo Health Center,Functional,Primary,Public,KD0502,eHA_Polio,Ikara,19005,Ikara,KD,Kaduna, , , , , , 
261,Point,sv_fc_healthcare_facilities.fid-65d4c550_169d91ba9ce_-538f,Point,8.255554,11.216235,geometry_type,11.216235,8.255554,Unknown,2018-09-25T14:25:45Z,Unknown,Primary Health Clinic,05caa5c2-03d7-4380-b768-979ccabbda6a,Auchunawa Basic Health Center,Unknown,Primary,Public,KD0502,eHA_Polio,Ikara,19005,Ikara,KD,Kaduna, , , , , , 
262,Point,sv_fc_healthcare_facilities.fid-65d4c550_169d91ba9ce_-5388,Point,8.308339,11.178915,geometry_type,11.178915,8.308339,Yes,2018-09-25T14:25:50Z,Unknown,Primary Health Clinic,9524f6cb-62ac-4fe6-b76f-7a7a69744585,Gimbawa Health Clinic,Functional,Primary,Public,KD0503,eHA_Polio,Jampalan,19005,Ikara,KD,Kaduna, , , , , , 
263,Point,sv_fc_healthcare_facilities.fid-65d4c550_169d91ba9ce_-5382,Point,8.208388,11.148772,geometry_type,11.148772,8.208388,Unknown,2018-09-25T14:42:57Z,Unknown,Primary Health Clinic,30ed1866-1486-4320-ba9f-cf1f3d8144b5,Kartau Basic Health Center,Unknown,Primary,Public,KD0503,eHA_Polio,Jampalan,19005,Ikara,KD,Kaduna, , , , , , 
264,Point,sv_fc_healthcare_facilities.fid-65d4c550_169d91ba9ce_-537d,Point,8.287935,11.162007,geometry_type,11.162007,8.287935,Unknown,2018-09-25T14:25:44Z,Unknown,Private Clinic,3151c32f-fdc2-458a-a9a9-664f7896b5aa,Rahama Maternity Clinic,Unknown,Tertiary,Private,KD0503,eHA_Polio,Jampalan,19005,Ikara,KD,Kaduna, , , , , , 
265,Point,sv_fc_healthcare_facilities.fid-65d4c550_169d91ba9ce_-5379,Point,8.231517,11.154673,geometry_type,11.154673,8.231517,Yes,2018-09-25T14:25:53Z,Unknown,General Hospital,77824303-ac95-4884-a66a-6456004481a0,Jamfalan General Hospital,Functional,Primary,Public,KD0503,eHA_Polio,Jampalan,19005,Ikara,KD,Kaduna, , , , , , 
266,Point,sv_fc_healthcare_facilities.fid-65d4c550_169d91ba9ce_-5375,Point,8.288659,11.161427,geometry_type,11.161427,8.288659,Yes,2018-09-25T14:25:49Z,Unknown,Primary Health Clinic,44df8257-c248-41d4-88d1-02534fe68640,Janfalan Primary Health Clinic,Unknown,Primary,Public,KD0503,eHA_Polio,Jampalan,19005,Ikara,KD,Kaduna, , , , , , 
267,Point,sv_fc_healthcare_facilities.fid-65d4c550_169d91ba9ce_-5370,Point,8.250494,11.158894,geometry_type,11.158894,8.250494,Unknown,2018-09-25T14:25:53Z,Unknown,Primary Health Clinic,cefbecc4-231f-45ed-8181-e4969fc4496c,Jibis Basic Health Center,Unknown,Primary,Public,KD0503,eHA_Polio,Jampalan,19005,Ikara,KD,Kaduna, , , , , , 
268,Point,sv_fc_healthcare_facilities.fid-65d4c550_169d91ba9ce_-536d,Point,8.208305,11.148806,geometry_type,11.148806,8.208305,Unknown,2018-09-25T14:25:45Z,Unknown,Primary Health Clinic,2b3cf00b-6361-41c0-b4ad-957871d446b0,Ikara Health Clinic,Unknown,Primary,Public,KD0503,eHA_Polio,Jampalan,19005,Ikara,KD,Kaduna, , , , , , 
269,Point,sv_fc_healthcare_facilities.fid-65d4c550_169d91ba9ce_-5364,Point,8.181674,11.21021,geometry_type,11.21021,8.181674,Yes,2018-09-25T14:25:53Z,Unknown,Health Post,6faa8da6-d073-4a03-bb3d-01da550be6cd,Dan Lawan Health Post,Functional,Primary,Public,KD0504,eHA_Polio,Kurmin Kogi,19005,Ikara,KD,Kaduna, , , , , , 
270,Point,sv_fc_healthcare_facilities.fid-65d4c550_169d91ba9ce_-5360,Point,8.210737,11.27465,geometry_type,11.27465,8.210737,Unknown,2018-09-25T14:25:54Z,Unknown,Primary Health Clinic,3b5bbe99-16ca-493e-b8a1-1ab22f460474,Godiya Clinic And Maternity Center,Unknown,Primary,Public,KD0504,eHA_Polio,Kurmin Kogi,19005,Ikara,KD,Kaduna, , , , , , 
271,Point,sv_fc_healthcare_facilities.fid-65d4c550_169d91ba9ce_-535a,Point,8.147879,11.167633,geometry_type,11.167633,8.147879,Yes,2018-09-25T14:25:48Z,Unknown,Primary Health Clinic,5ab987cf-daad-4069-b6e6-fdf7b1a3a61c,Angwan Barau Health Clinic,Functional,Primary,Public,KD0504,eHA_Polio,Kurmin Kogi,19005,Ikara,KD,Kaduna, , , , , , 
272,Point,sv_fc_healthcare_facilities.fid-65d4c550_169d91ba9ce_-5354,Point,8.211634,11.275017,geometry_type,11.275017,8.211634,Yes,2018-09-25T14:25:54Z,Unknown,Primary Health Clinic,8913d513-1746-488a-804c-da6bdad03e68,Furana Primary Health Care Center,Functional,Primary,Public,KD0504,eHA_Polio,Kurmin Kogi,19005,Ikara,KD,Kaduna, , , , , , 
273,Point,sv_fc_healthcare_facilities.fid-65d4c550_169d91ba9ce_-5350,Point,8.107604,11.206785,geometry_type,11.206785,8.107604,Yes,2018-09-25T14:25:48Z,Unknown,Primary Health Center,43bf4be9-6a1a-490c-8f2b-4b5073706164,Kurmin Kogi Primary Health Center,Functional,Primary,Public,KD0504,eHA_Polio,Kurmin Kogi,19005,Ikara,KD,Kaduna, , , , , , 
274,Point,sv_fc_healthcare_facilities.fid-65d4c550_169d91ba9ce_-534b,Point,8.18016,11.18253,geometry_type,11.18253,8.18016,Unknown,2018-09-25T14:25:48Z,Unknown,Primary Health Center,29e6eef5-fce3-4b1c-8ebf-7d46be9fd883,Nassarawa Health Center,Unknown,Primary,Others,KD0504,NPHCDA,Kurmin Kogi,19005,Ikara,KD,Kaduna, , , , , , 
275,Point,sv_fc_healthcare_facilities.fid-65d4c550_169d91ba9ce_-5346,Point,8.109081,11.24988,geometry_type,11.24988,8.109081,Unknown,2018-09-25T14:25:49Z,Unknown,Private Non Profit,6f9d8e23-62f8-4353-93d0-96f4a1ea613c,Anglican Dioces Of Ikara,Unknown,Primary,Public,KD0504,eHA_Polio,Kurmin Kogi,19005,Ikara,KD,Kaduna, , , , , , 
276,Point,sv_fc_healthcare_facilities.fid-65d4c550_169d91ba9ce_-5343,Point,8.107932,11.205658,geometry_type,11.205658,8.107932,Unknown,2018-09-25T14:25:50Z,Unknown,Primary Health Clinic,42ea5f96-21a3-4161-8a85-f243dd879e2a,Baptist Primary Health Care,Unknown,Primary,Public,KD0504,eHA_Polio,Kurmin Kogi,19005,Ikara,KD,Kaduna, , , , , , 
277,Point,sv_fc_healthcare_facilities.fid-65d4c550_169d91ba9ce_-533e,Point,8.105598,11.205342,geometry_type,11.205342,8.105598,Yes,2018-09-25T14:25:46Z,Unknown,Private Clinic,31d18e61-6240-4e4c-89ac-5e66318c70bb,Lafiya Clinic Kurmin Kogi,Unknown,Primary,Public,KD0504,eHA_Polio,Kurmin Kogi,19005,Ikara,KD,Kaduna, , , , , , 
278,Point,sv_fc_healthcare_facilities.fid-65d4c550_169d91ba9ce_-533a,Point,8.103442,11.20827,geometry_type,11.20827,8.103442,Unknown,2018-09-25T14:25:45Z,Unknown,Primary Health Clinic,66c0fb78-92a1-45d1-ac42-d1027b4569ec,Kodia Clinic,Unknown,Primary,Public,KD0504,eHA_Polio,Kurmin Kogi,19005,Ikara,KD,Kaduna, , , , , , 
279,Point,sv_fc_healthcare_facilities.fid-65d4c550_169d91ba9ce_-5336,Point,8.144125,11.170639,geometry_type,11.170639,8.144125,Unknown,2018-09-25T14:25:46Z,Unknown,Primary Health Clinic,f4645667-a5d2-4737-8c88-04507b54d669,Anguwan Barau Health Clinic,Unknown,Primary,Public,KD0504,eHA_Polio,Kurmin Kogi,19005,Ikara,KD,Kaduna, , , , , , 
280,Point,sv_fc_healthcare_facilities.fid-65d4c550_169d91ba9ce_-5331,Point,8.09753,11.36594,geometry_type,11.36594,8.09753,Unknown,2018-09-25T14:25:43Z,Unknown,Primary Health Clinic,16725e49-324f-4b20-b53a-8d3e3d412218,Jama'a Clinic And Maternity,Unknown,Primary,Public,KD0505,eHA_Polio,Kuya,19005,Ikara,KD,Kaduna, , , , , , 
281,Point,sv_fc_healthcare_facilities.fid-65d4c550_169d91ba9ce_-532d,Point,8.082393,11.39042,geometry_type,11.39042,8.082393,Yes,2018-09-25T14:25:47Z,Unknown,Primary Health Clinic,40c97baf-bb10-429a-a0ad-a1c931f6517d,Gangarida Health Clinic,Functional,Primary,Public,KD0505,eHA_Polio,Kuya,19005,Ikara,KD,Kaduna, , , , , , 
282,Point,sv_fc_healthcare_facilities.fid-65d4c550_169d91ba9ce_-5327,Point,8.081299,11.388916,geometry_type,11.388916,8.081299,Unknown,2018-09-25T14:25:47Z,Unknown,Primary Health Clinic,c986d43f-7f24-4932-a542-fb4d0b74eafb,Sauki Clinic,Unknown,Primary,State Primary HealthCare Development Agency,KD0505,eHA_Polio,Kuya,19005,Ikara,KD,Kaduna, , , , , , 
283,Point,sv_fc_healthcare_facilities.fid-65d4c550_169d91ba9ce_-5322,Point,8.129628,11.414181,geometry_type,11.414181,8.129628,Yes,2018-09-25T14:25:54Z,Unknown,Health Post,f5da1a20-1a02-4d1a-bd12-eedbbd0d41ad,Tashar Ango Health Post,Functional,Primary,Public,KD0505,eHA_Polio,Kuya,19005,Ikara,KD,Kaduna, , , , , , 
284,Point,sv_fc_healthcare_facilities.fid-65d4c550_169d91ba9ce_-531d,Point,8.110116,11.453622,geometry_type,11.453622,8.110116,Unknown,2018-09-25T14:25:45Z,Unknown,Health Post,bb87180d-cabd-4f0e-8262-eb2bef09aa74,Kaza Mai Rimi Health Post,Functional,Primary,Public,KD0505,eHA_Polio,Kuya,19005,Ikara,KD,Kaduna, , , , , , 
285,Point,sv_fc_healthcare_facilities.fid-65d4c550_169d91ba9ce_-5318,Point,8.080027,11.449619,geometry_type,11.449619,8.080027,Yes,2018-09-25T14:25:54Z,Unknown,Health Post,97f30bde-0fd3-43fc-a00c-ce8de5004519,Kuya Health Post,Functional,Primary,Public,KD0505,eHA_Polio,Kuya,19005,Ikara,KD,Kaduna, , , , , , 
286,Point,sv_fc_healthcare_facilities.fid-65d4c550_169d91ba9ce_-5314,Point,8.130034,11.460067,geometry_type,11.460067,8.130034,Yes,2018-09-25T14:25:47Z,Unknown,Health Post,2cdcf609-99ee-4133-96a7-44248a9dbdef,Bamuyayi Health Post,Functional,Primary,Public,KD0505,eHA_Polio,Kuya,19005,Ikara,KD,Kaduna, , , , , , 
287,Point,sv_fc_healthcare_facilities.fid-65d4c550_169d91ba9ce_-5310,Point,8.104237,11.403021,geometry_type,11.403021,8.104237,Yes,2018-09-25T14:25:50Z,Unknown,Health Post,bcb7c7cb-60c3-49a2-a67b-8d4f813c4427,Tashar Nabai Health Post,Functional,Primary,Public,KD0505,eHA_Polio,Kuya,19005,Ikara,KD,Kaduna, , , , , , 
288,Point,sv_fc_healthcare_facilities.fid-65d4c550_169d91ba9ce_-530b,Point,8.065397,11.487,geometry_type,11.487,8.065397,Yes,2018-09-25T14:27:13Z,Unknown,Health Post,93b0649d-d40d-465f-8b83-0fa7f72e3a75,Yalwan Daji Health Post,Functional,Primary,Public,KD0506,eHA_Polio,Paki,19005,Ikara,KD,Kaduna, , , , , , 
289,Point,sv_fc_healthcare_facilities.fid-65d4c550_169d91ba9ce_-5303,Point,8.447612,11.139182,geometry_type,11.139182,8.447612,Unknown,2018-09-25T14:25:45Z,Unknown,Primary Health Clinic,57154b9c-2296-4e2f-829c-e9ec196d3731,Zomo Kowa Med Center,Unknown,Primary,Public,KD0507,eHA_Polio,Pala,19005,Ikara,KD,Kaduna, , , , , , 
290,Point,sv_fc_healthcare_facilities.fid-65d4c550_169d91ba9ce_-52fe,Point,8.419017,11.172319,geometry_type,11.172319,8.419017,Unknown,2018-09-25T14:25:53Z,Unknown,Health Post,7bf5278a-5fc1-4103-aea5-8c40745e2bf0,Kundurun Health Post,Functional,Primary,Public,KD0507,eHA_Polio,Pala,19005,Ikara,KD,Kaduna, , , , , , 
291,Point,sv_fc_healthcare_facilities.fid-65d4c550_169d91ba9ce_-52f3,Point,8.03468,11.363075,geometry_type,11.363075,8.03468,Unknown,2018-09-25T14:25:47Z,Unknown,Primary Health Clinic,813537a5-60c2-4d41-a8d5-aa7a5f51fec4,Lafiya Tafi Kudi Clinic And Maternity,Unknown,Primary,Public,KD0508,eHA_Polio,Rumi,19005,Ikara,KD,Kaduna, , , , , , 
292,Point,sv_fc_healthcare_facilities.fid-65d4c550_169d91ba9ce_-52ef,Point,8.027556,11.363451,geometry_type,11.363451,8.027556,Yes,2018-09-25T14:25:48Z,Unknown,Health Post,2196d3cb-647d-4a45-9649-76e3151582bb,Rumi Health Post,Functional,Primary,Public,KD0508,eHA_Polio,Rumi,19005,Ikara,KD,Kaduna, , , , , , 
293,Point,sv_fc_healthcare_facilities.fid-65d4c550_169d91ba9ce_-52ea,Point,7.997535,11.366087,geometry_type,11.366087,7.997535,Unknown,2018-09-25T14:25:50Z,Unknown,Primary Health Clinic,ba2a1045-a54c-41c9-84b3-aeeb26ba4d1e,Jama a Clinic And Maternity,Unknown,Primary,Public,KD0508,eHA_Polio,Rumi,19005,Ikara,KD,Kaduna, , , , , , 
294,Point,sv_fc_healthcare_facilities.fid-65d4c550_169d91ba9ce_-52e6,Point,8.019493,11.393127,geometry_type,11.393127,8.019493,Yes,2018-09-25T14:25:45Z,Unknown,Primary Health Clinic,ccac64ea-78ce-4954-88ec-5dc1c3ae8c93,Rafin Rogo Health Clinic,Functional,Primary,Public,KD0508,eHA_Polio,Rumi,19005,Ikara,KD,Kaduna, , , , , , 
295,Point,sv_fc_healthcare_facilities.fid-65d4c550_169d91ba9ce_-52e2,Point,7.9883,11.367867,geometry_type,11.367867,7.9883,Unknown,2018-09-25T14:34:40Z,Unknown,Primary Health Center,df6aea32-d61f-4085-a192-3aea1d96530a,Wambai Primary Health Center,Functional,Primary,Others,KD0508,NPHCDA,Rumi,19005,Ikara,KD,Kaduna, , , , , , 
296,Point,sv_fc_healthcare_facilities.fid-65d4c550_169d91ba9ce_-52de,Point,7.992966,11.43602,geometry_type,11.43602,7.992966,Unknown,2018-09-25T14:25:49Z,Unknown,Health Post,c16888c9-7238-48f5-961e-b0ba0164a994,Rinji Health Post,Functional,Primary,Public,KD0508,eHA_Polio,Rumi,19005,Ikara,KD,Kaduna, , , , , , 
297,Point,sv_fc_healthcare_facilities.fid-65d4c550_169d91ba9ce_-52d9,Point,8.003068,11.36461,geometry_type,11.36461,8.003068,Unknown,2018-09-25T14:25:45Z,Unknown,Primary Health Clinic,a071283f-7c7b-4306-a821-38f7cd52ad9d,Zinta Maternity Home Wambai,Unknown,Primary,Public,KD0508,eHA_Polio,Rumi,19005,Ikara,KD,Kaduna, , , , , , 
298,Point,sv_fc_healthcare_facilities.fid-65d4c550_169d91ba9ce_-52d4,Point,7.988623,11.460122,geometry_type,11.460122,7.988623,Yes,2018-09-25T14:25:52Z,Unknown,Health Post,881e497b-53b7-4424-8769-2aa2803a117b,Yauran Health Post,Functional,Primary,Public,KD0508,eHA_Polio,Rumi,19005,Ikara,KD,Kaduna, , , , , , 
299,Point,sv_fc_healthcare_facilities.fid-65d4c550_169d91ba9ce_-52d1,Point,7.965628,11.386239,geometry_type,11.386239,7.965628,Unknown,2018-09-25T14:34:40Z,Unknown,Primary Health Center,8db10090-c00e-43c9-a90f-4ee759222139,Gidan Dahiru Ja Health Center,Functional,Primary,Others,KD0508,NPHCDA,Rumi,19005,Ikara,KD,Kaduna, , , , , , 
300,Point,sv_fc_healthcare_facilities.fid-65d4c550_169d91ba9ce_-52c8,Point,7.996331,11.365084,geometry_type,11.365084,7.996331,Unknown,2018-09-25T14:25:55Z,Unknown,Health Post,c1c3673d-774b-4895-a81c-d108d0c43ac6,Wambai Health Post,Functional,Primary,Public,KD0508,eHA_Polio,Rumi,19005,Ikara,KD,Kaduna, , , , , , 
301,Point,sv_fc_healthcare_facilities.fid-65d4c550_169d91ba9ce_-52c4,Point,8.013001,11.362856,geometry_type,11.362856,8.013001,Unknown,2018-09-25T14:34:40Z,Unknown,Primary Health Center,b0ab976e-9e34-4213-9f87-c32899677eb5,Rumi Primary Health Center,Functional,Primary,Others,KD0508,NPHCDA,Rumi,19005,Ikara,KD,Kaduna, , , , , , 
302,Point,sv_fc_healthcare_facilities.fid-65d4c550_169d91ba9ce_-52bf,Point,8.164569,11.321996,geometry_type,11.321996,8.164569,Yes,2018-09-25T14:25:44Z,Unknown,Primary Health Clinic,7f1f097b-dfc6-4c5d-8db3-fbf9b741ff95,Pampaida Health Clinic,Functional,Primary,Public,KD0509,eHA_Polio,Saulawa,19005,Ikara,KD,Kaduna, , , , , , 
